     2.11           OBSERVATION DATA    G (GPS)             RINEX VERSION / TYPE
teqc  2012Oct31     UNAVCO Archive Ops  20130102 01:36:05UTCPGM / RUN BY / DATE
Solaris x86 5.10|AMD64|cc SC5.8 -xarch=amd64|=+|=+          COMMENT
BIT 2 OF LLI FLAGS DATA COLLECTED UNDER A/S CONDITION       COMMENT
WHC1                                                        MARKER NAME
40461M001                                                   MARKER NUMBER
Nancy King          U.S. Geological Survey                  OBSERVER / AGENCY
618-01156           TPS NET-G3A         3.6 Feb,28,2012 p1  REC # / TYPE / VERS
383-1860            TPSCR.G3        SCIS                    ANT # / TYPE
 -2488199.3244 -4673487.1517  3544649.2637                  APPROX POSITION XYZ
        0.0000        0.0000        0.0000                  ANTENNA: DELTA H/E/N
     1     1                                                WAVELENGTH FACT L1/2
     7    L1    L2    C1    P2    P1    S1    S2            # / TYPES OF OBSERV
    30.0000                                                 INTERVAL
    16                                                      LEAP SECONDS
Forced Modulo Decimation to 30 seconds                      COMMENT
RINEX file created by UNAVCO GPS Archive.                   COMMENT
For more information contact archive@unavco.org             COMMENT
Monument ID: 19547                                          COMMENT
UNAVCO 4-char name:   WHC1                                  COMMENT
4-char name from Log or data file: WHC1                     COMMENT
Monument location: 33.97988492 -118.03116927 94.2474        COMMENT
Visit ID: 105561                                            COMMENT
End of DB comments                                          COMMENT
 SNR is mapped to RINEX snr flag value [0-9]                COMMENT
  L1 & L2: min(max(int(snr_dBHz/6), 0), 9)                  COMMENT
pseudorange smoothing corrections not applied               COMMENT
rx serial #: 618-01156                                      COMMENT
  2013     1     1     0     0    0.0000000     GPS         TIME OF FIRST OBS
                                                            END OF HEADER
 13  1  1  0  0  0.0000000  0  8G11G20G01G14G31G22G32G19
 113490242.040 8  88433955.83246  21596463.284    21596460.921    21596462.216
        49.000          37.0004
 126775646.107 6  98786205.73642  24124599.017    24124597.883    24124597.738
        38.000          17.0004
 114631245.806 7  89323064.02746  21813590.936    21813592.187    21813589.561
        47.000          36.0004
 115399989.878 7  89922088.30345  21959876.093    21959873.655    21959874.742
        47.000          34.0004
 108894666.428 8  84852987.62047  20721965.345    20721963.577    20721964.851
        52.000          43.0004
 116415838.511 7  90713646.71645  22153191.433    22153186.868    22153189.660
        47.000          35.0004
 116517273.720 7  90792687.80445  22172490.653    22172489.826    22172489.004
        47.000          34.0004
 128881398.294 6 100427068.09543  24525312.068    24525311.908    24525311.162
        38.000          21.0004
 13  1  1  0  0 30.0000000  0  8G11G20G01G14G31G22G32G19
 113448435.414 8  88401379.26046  21588507.400    21588505.747    21588506.455
        49.000          37.0004
 126642804.883 6  98682693.14942  24099320.278    24099319.415    24099317.807
        38.000          17.0004
 114527073.608 7  89241890.91246  21793767.423    21793768.476    21793766.658
        46.000          37.0004
 115424527.731 7  89941208.70345  21964545.766    21964543.095    21964544.846
        47.000          34.0004
 108798839.452 8  84778317.28247  20703729.816    20703728.151    20703729.367
        50.000          43.0004
 116428039.406 7  90723153.88245  22155512.880    22155509.220    22155511.390
        47.000          34.0004
 116417086.595 7  90714619.95045  22153425.265    22153424.377    22153423.621
        47.000          34.0004
 128916766.498 6 100454627.68243  24532042.273    24532042.663    24532041.160
        39.000          21.0004
 13  1  1  0  1  0.0000000  0  8G11G20G01G14G31G22G32G19
 113407192.317 7  88369241.81646  21580658.865    21580657.263    21580658.229
        47.000          37.0004
 126509954.754 6  98579173.64442  24074039.799    24074039.987    24074037.576
        38.000          17.0004
 114423367.505 8  89161081.00146  21774032.908    21774034.321    21774031.906
        48.000          37.0004
 115449180.976 7  89960419.03945  21969237.271    21969235.081    21969236.260
        47.000          33.0004
 108703555.270 8  84704069.90647  20685598.079    20685596.029    20685597.433
        51.000          43.0004
 116440473.061 7  90732842.42845  22157878.628    22157875.345    22157877.391
        47.000          34.0004
 116317004.119 7  90636633.67045  22134380.090    22134379.867    22134378.745
        46.000          34.0004
 128952161.222 6 100482207.95343  24538777.962    24538776.822    24538776.561
        39.000          20.0004
 13  1  1  0  1 30.0000000  0  8G11G20G01G14G31G22G32G19
 113366512.015 8  88337542.90246  21572917.996    21572916.343    21572916.959
        49.000          37.0004
 126377096.936 6  98475648.18342  24048757.738    24048757.681    24048755.426
        37.000          16.0004
 114320130.084 7  89080636.30346  21754387.056    21754389.031    21754386.332
        47.000          36.0004
 115473947.852 7  89979717.92645  21973949.511    21973947.907    21973949.029
        46.000          34.0004
 108608816.364 8  84630247.42047  20667569.389    20667567.689    20667568.723
        51.000          43.0004
 116453139.648 7  90742712.47745  22160288.939    22160285.983    22160286.972
        46.000          34.0004
 116217027.501 7  90558729.86145  22115355.184    22115354.055    22115354.019
        47.000          34.0004
 128987580.076 6 100509806.99343  24545519.097    24545517.893    24545516.843
        40.000          21.0004
 13  1  1  0  2  0.0000000  0  8G11G20G01G14G31G22G32G19
 113326392.398 8  88306280.88946  21565283.625    21565281.421    21565282.465
        49.000          37.0004
 126244230.014 6  98372115.60842  24023473.875    24023474.286    24023472.769
        36.000          16.0004
 114217361.201 7  89000556.69046  21734830.715    21734831.935    21734829.797
        46.000          37.0004
 115498824.790 8  89999102.55845  21978684.274    21978681.219    21978683.276
        48.000          33.0004
 108514622.086 8  84556849.33047  20649644.771    20649643.084    20649644.150
        51.000          43.0004
 116466037.116 7  90752762.43345  22162743.845    22162739.647    22162741.754
        47.000          34.0004
 116117155.044 7  90480907.20845  22096350.235    22096349.150    22096349.364
        47.000          34.0004
 129023017.659 6 100537420.65343  24552261.962    24552260.438    24552259.787
        40.000          21.0004
 13  1  1  0  2 30.0000000  0  8G11G20G01G14G31G22G32G19
 113286838.334 8  88275459.56246  21557756.737    21557754.024    21557755.778
        49.000          37.0004
 126111360.319 6  98268580.92142  23998189.756    23998188.866    23998187.859
        37.000          16.0004
 114115068.593 8  88920848.19646  21715365.569    21715366.514    21715364.414
        48.000          37.0004
 115523815.783 7  90018576.08645  21983439.382    21983437.031    21983438.538
        47.000          33.0004
 108420979.761 8  84483881.32247  20631825.468    20631823.626    20631824.857
        49.000          43.0004
 116479171.228 7  90762996.78145  22165242.341    22165238.841    22165240.833
        46.000          34.0004
 116017392.989 8  90403170.58945  22077366.429    22077364.839    22077364.887
        48.000          34.0004
 129058476.628 6 100565051.00543  24559009.185    24559008.277    24559006.755
        38.000          20.0004
 13  1  1  0  3  0.0000000  0  8G11G20G01G14G31G22G32G19
 113247846.837 8  88245076.59946  21550336.622    21550334.571    21550336.004
        49.000          37.0004
 125978486.780 6  98165043.23642  23972903.091    23972903.992    23972902.759
        36.000          15.0004
 114013252.026 7  88841510.66746  21695990.334    21695991.742    21695989.308
        46.000          37.0004
 115548917.224 7  90038135.67045  21988216.090    21988213.488    21988215.469
        47.000          33.0004
 108327888.562 8  84411342.76147  20614110.697    20614108.870    20614110.417
        50.000          43.0004
 116492539.753 7  90773413.77245  22167787.132    22167783.451    22167785.304
        47.000          34.0004
 115917739.915 7  90325518.89445  22058402.554    22058401.595    22058401.225
        47.000          34.0004
 129093952.078 6 100592694.19143  24565760.199    24565759.904    24565759.362
        38.000          20.0004
 13  1  1  0  3 30.0000000  0  9G11G20G01G14G31G22G32G23G19
 113209413.780 8  88215128.78946  21543023.092    21543021.116    21543021.678
        49.000          37.0004
 125845606.310 6  98061500.16142  23947617.945    23947617.628    23947616.832
        38.000          15.0004
 113911909.675 7  88762542.64046  21676705.261    21676706.321    21676704.382
        46.000          37.0004
 115574123.446 7  90057776.89645  21993012.720    21993010.726    21993011.868
        45.000          33.0004
 108235346.262 8  84339231.91047  20596500.714    20596498.553    20596500.150
        50.000          43.0004
 116506138.906 7  90784010.50445  22170374.681    22170370.943    22170372.910
        46.000          34.0004
 115818192.605 7  90247949.60845  22039459.245    22039458.148    22039458.273
        47.000          34.0004
 132742733.790 6                  25260103.084
        36.000
 129129436.979 6 100620344.72642  24572513.399    24572512.453    24572510.684
        36.000          17.0004
 13  1  1  0  4  0.0000000  0  9G11G20G01G14G31G22G32G23G19
 113171539.506 8  88185616.39346  21535816.228    21535813.616    21535815.431
        50.000          37.0004
 125712720.976 6  97957953.24242  23922331.257    23922329.255    23922328.878
        39.000          17.0004
 113811045.003 7  88683946.83246  21657511.410    21657512.869    21657510.503
        47.000          37.0004
 115599434.407 7  90077499.75545  21997829.353    21997826.708    21997828.107
        47.000          33.0004
 108143355.950 8  84267551.19247  20578995.473    20578993.502    20578994.757
        51.000          42.0004
 116519970.402 7  90794788.28345  22173006.514    22173002.976    22173005.361
        46.000          33.0004
 115718753.199 7  90170464.40645  22020537.100    22020535.850    22020535.771
        47.000          35.0004
 132618505.740 6 103339098.5434   25236462.368    25236460.985    25236461.971
        39.000           5.0004
 129164930.266 5 100648001.73542  24579266.138    24579265.604    24579264.080
        35.000          17.0004
 13  1  1  0  4 30.0000000  0  9G11G20G01G14G31G22G32G23G19
 113134222.591 8  88156538.30946  21528714.746    21528712.860    21528713.570
        49.000          37.0004
 125579831.078 6  97854402.79642  23897043.015    23897041.056    23897041.189
        39.000          17.0004
 113710659.164 7  88605724.14146  21638408.796    21638410.004    21638407.805
        47.000          38.0004
 115624847.683 7  90097302.32745  22002665.031    22002662.644    22002663.722
        45.000          33.0004
 108051918.281 8  84196301.10847  20561595.074    20561593.409    20561594.425
        51.000          43.0004
 116534033.117 7  90805746.22645  22175682.947    22175679.005    22175681.022
        46.000          33.0004
 115619421.477 8  90093063.11145  22001634.842    22001633.657    22001633.238
        48.000          35.0004
 132494383.920 6 103242380.36841  25212843.197    25212841.033    25212842.719
        40.000           9.0004
 129200427.739 5 100675662.06642  24586022.984    24586021.207    24586020.496
        35.000          15.0004
 13  1  1  0  5  0.0000000  0  9G11G20G01G14G31G22G32G23G19
 113097460.683 7  88127892.68446  21521719.185    21521717.043    21521717.941
        45.000          37.0004
 125446935.753 6  97750848.15542  23871753.227    23871752.473    23871752.392
        38.000          17.0004
 113610752.561 7  88527874.88346  21619397.165    21619398.769    21619396.351
        44.000          37.0004
 115650360.274 7  90117182.29745  22007519.457    22007517.562    22007518.680
        43.000          32.0004
 107961033.339 7  84125481.71347  20544300.702    20544298.678    20544300.078
        47.000          42.0004
 116548325.595 7  90816883.19545  22178402.952    22178398.453    22178401.094
        44.000          33.0004
 115520196.646 7  90015745.10745  21982753.103    21982751.721    21982751.245
        45.000          35.0004
 132370366.811 6 103145743.77741  25189243.998    25189242.810    25189242.503
        40.000           9.0004
 129235924.683 6 100703322.01142  24592777.382    24592776.033    24592775.715
        36.000          15.0004
 13  1  1  0  5 30.0000000  0  9G11G20G01G14G31G22G32G23G19
 113061256.040 8  88099681.30446  21514829.667    21514827.370    21514828.835
        49.000          37.0004
 125314038.526 6  97647291.97842  23846463.732    23846462.680    23846462.934
        39.000          17.0004
 113511329.931 7  88450402.73946  21600477.949    21600478.886    21600476.754
        47.000          38.0004
 115675973.343 7  90137140.53645  22012393.648    22012391.462    22012392.580
        45.000          32.0004
 107870704.964 8  84055095.99847  20527111.463    20527109.736    20527111.004
        50.000          43.0004
 116562850.332 7  90828201.16045  22181166.317    22181163.113    22181165.504
        46.000          33.0004
 115421082.046 7  89938512.99045  21963892.186    21963890.673    21963890.693
        47.000          35.0004
 132246457.580 6 103049191.27442  25165665.216    25165663.862    25165663.149
        39.000          15.0004
 129271421.047 6 100730981.46242  24599532.337    24599530.722    24599529.990
        36.000          15.0004
 13  1  1  0  6  0.0000000  0  9G11G20G01G14G31G22G32G23G19
 113025608.670 8  88071904.14846  21508045.807    21508043.740    21508045.277
        50.000          37.0004
 125181141.303 6  97543735.79842  23821174.848    23821172.993    23821172.755
        39.000          17.0004
 113412394.102 7  88373309.92046  21581650.866    21581652.251    21581649.689
        46.000          38.0004
 115701686.152 7  90157176.51045  22017286.877    22017284.216    22017285.788
        47.000          32.0004
 107780935.856 8  83985146.07447  20510028.949    20510027.110    20510028.315
        51.000          43.0004
 116577608.462 7  90839700.97245  22183974.917    22183971.061    22183973.011
        46.000          33.0004
 115322079.308 7  89861368.02645  21945052.519    21945051.272    21945050.664
        47.000          35.0004
 132122657.388 6 102952723.72142  25142105.866    25142104.454    25142104.560
        39.000          15.0004
 129306915.072 5 100758639.03442  24606287.309    24606286.296    24606285.044
        35.000          15.0004
 13  1  1  0  6 30.0000000  0  9G11G20G01G14G31G22G32G23G19
 112990515.419 7  88044558.78846  21501367.945    21501366.022    21501367.036
        47.000          37.0004
 125048242.851 6  97440178.73942  23795883.609    23795883.283    23795882.559
        38.000          17.0004
 113313944.887 7  88296596.28546  21562916.367    21562917.938    21562915.159
        46.000          38.0004
 115727495.022 7  90177287.32245  22022197.725    22022196.062    22022196.742
        45.000          32.0004
 107691725.481 8  83915631.53147  20493053.289    20493050.795    20493052.595
        51.000          43.0004
 116592598.078 7  90851381.16045  22186827.803    22186823.685    22186825.653
        46.000          34.0004
 115223187.031 7  89784309.15445  21926233.724    21926232.509    21926232.310
        47.000          35.0004
 131998963.843 6 102856339.35142  25118567.392    25118567.524    25118566.605
        39.000          16.0004
 129342401.858 5 100786291.02742  24613038.528    24613038.841    24613036.369
        35.000          16.0004
 13  1  1  0  7  0.0000000  0  9G11G20G01G14G31G22G32G23G19
 114531397.044 8  89245245.78846  21794587.956    21794585.349    21794587.009
        49.000          37.0004
 126490768.841 6  98564225.10343  24070388.976    24070387.627    24070386.214
        38.000          18.0004
 114791407.712 8  89447866.06146  21844068.249    21844069.871    21844067.104
        48.000          38.0004
 117328817.920 7  91425071.41545  22326920.038    22326916.827    22326919.372
        47.000          32.0004
 109178498.120 8  85074155.69547  20775976.177    20775974.123    20775975.696
        50.000          43.0004
 118183238.733 7  92090841.40845  22489516.558    22489512.135    22489514.911
        46.000          33.0004
 116699829.513 7  90934939.70945  22207229.511    22207228.514    22207228.246
        46.000          35.0004
 133450801.913 6 103987641.90642  25394843.466    25394842.115    25394842.534
        40.000          16.0004
 130953297.248 6 102041534.12642  24919582.696    24919581.150    24919580.590
        36.000          16.0004
 13  1  1  0  7 30.0000000  0  9G11G20G01G14G31G22G32G23G19
 114497412.017 7  89218763.96646  21788121.003    21788118.841    21788119.744
        47.000          37.0004
 126357872.635 6  98460669.74043  24045098.332    24045098.121    24045096.841
        38.000          18.0004
 114693939.468 7  89371916.80346  21825520.456    21825522.250    21825519.571
        47.000          38.0004
 117354816.390 7  91445329.96545  22331867.544    22331864.614    22331866.258
        45.000          32.0004
 109090410.569 8  85005516.08347  20759214.004    20759211.709    20759213.200
        51.000          43.0004
 118198692.947 7  92102883.62745  22492457.413    22492453.721    22492455.787
        46.000          33.0004
 116601162.333 8  90858056.21946  22188453.853    22188452.772    22188452.677
        48.000          36.0004
 133327324.999 6 103891426.26642  25371346.584    25371344.729    25371344.435
        39.000          17.0004
 130988762.139 6 102069169.06942  24926331.033    24926331.172    24926330.637
        38.000          13.0004
 13  1  1  0  8  0.0000000  0  9G11G20G01G14G31G22G32G23G19
 114463978.060 8  89192711.54946  21781758.509    21781756.567    21781757.921
        49.000          37.0004
 126224977.100 6  98357114.94343  24019808.118    24019808.665    24019806.696
        37.000          18.0004
 114596962.835 7  89296350.62846  21807066.672    21807068.095    21807065.197
        47.000          38.0004
 117380905.794 7  91465659.37145  22336832.020    22336828.743    22336830.582
        45.000          32.0004
 109002885.087 8  84937314.44447  20742558.487    20742555.901    20742557.910
        52.000          43.0004
 118214377.579 7  92115105.41245  22495441.814    22495437.845    22495439.916
        46.000          33.0004
 116502607.021 7  90781259.91745  22169698.783    22169697.833    22169697.734
        47.000          35.0004
 133203955.059 6 103795294.00342  25347869.392    25347867.200    25347867.518
        39.000          17.0004
 131024209.915 6 102096790.70442  24933076.158    24933076.457    24933075.335
        38.000          16.0004
 13  1  1  0  8 30.0000000  0  9G11G20G01G14G31G22G32G23G19
 114431096.903 8  89167089.88046  21775501.361    21775499.528    21775500.503
        49.000          37.0004
 126092085.939 6  98253563.51543  23994520.903    23994518.816    23994519.533
        40.000          19.0004
 114500482.480 7  89221171.16046  21788707.065    21788708.775    21788705.977
        47.000          38.0004
 117407087.434 7  91486060.65945  22341814.468    22341811.305    22341813.768
        46.000          32.0004
 108915925.794 8  84869553.99947  20726010.335    20726008.235    20726009.753
        52.000          44.0004
 118230295.519 7  92127509.00645  22498471.511    22498466.534    22498469.638
        46.000          33.0004
 116404167.156 7  90704553.56946  22150966.357    22150965.193    22150964.901
        47.000          36.0004
 133080694.649 6 103699247.06942  25324413.233    25324413.129    25324411.267
        38.000          14.0004
 131059640.560 6 102124398.96342  24939818.569    24939817.866    24939815.963
        36.000          16.0004
 13  1  1  0  9  0.0000000  0  9G11G20G01G14G31G22G32G23G19
 114398770.192 8  89141900.24246  21769350.028    21769347.603    21769349.129
        49.000          37.0004
 125959202.644 6  98150018.20943  23969232.765    23969231.751    23969232.547
        38.000          19.0004
 114404502.581 7  89146381.64946  21770442.187    21770443.728    21770441.188
        47.000          38.0004
 117433362.027 7  91506534.36445  22346813.973    22346811.870    22346813.103
        45.000          32.0004
 108829536.141 8  84802237.43047  20709570.921    20709568.633    20709570.584
        51.000          44.0004
 118246449.312 7  92140096.36345  22501545.253    22501541.557    22501543.127
        47.000          34.0004
 116305845.781 8  90627939.54245  22132256.885    22132254.898    22132255.352
        48.000          35.0004
 132957546.460 6 103603287.56042  25300979.153    25300978.505    25300977.560
        38.000          14.0004
 131095053.838 5 102151993.65342  24946559.201    24946556.821    24946556.782
        34.000          13.0004
 13  1  1  0  9 30.0000000  0  9G11G20G01G14G31G22G32G23G19
 114366996.713 8  89117141.69346  21763303.957    21763301.419    21763303.041
        50.000          37.0004
 125826327.813 6  98046479.49043  23943948.044    23943945.701    23943946.524
        37.000          18.0004
 114309024.939 7  89071983.50746  21752273.688    21752274.923    21752272.653
        47.000          38.0004
 117459727.885 7  91527079.18645  22351831.025    22351828.656    22351829.773
        46.000          32.0004
 108743717.493 8  84735365.77947  20693240.421    20693237.869    20693239.773
        52.000          43.0004
 118262838.480 7  92152867.11445  22504663.737    22504660.278    22504662.042
        46.000          34.0004
 116207643.606 7  90551418.40146  22113569.602    22113568.258    22113567.679
        47.000          36.0004
 132834510.689 6 103507415.68342  25277567.043    25277565.611    25277565.336
        38.000          14.0004
 131130446.374 5 102179572.22142  24953293.502    24953292.876    24953291.658
        34.000          13.0004
 13  1  1  0 10  0.0000000  0  9G11G20G01G14G31G22G32G23G19
 114335772.410 8  89092811.07846  21757362.143    21757359.766    21757361.020
        48.000          37.0004
 125693459.275 6  97942945.67043  23918664.189    23918662.522    23918662.391
        37.000          18.0004
 114214048.061 8  88997975.58046  21734200.669    21734201.492    21734199.523
        49.000          38.0004
 117486180.461 7  91547691.58045  22356863.967    22356863.226    22356863.614
        45.000          31.0004
 108658467.705 8  84668937.40447  20677017.692    20677015.378    20677017.449
        51.000          44.0004
 118279459.895 7  92165818.85845  22507826.559    22507823.816    22507824.932
        45.000          33.0004
 116109558.038 8  90474988.13646  22094903.983    22094903.291    22094903.040
        48.000          36.0004
 132711584.284 6 103411628.96342  25254173.713    25254172.835    25254172.730
        38.000          14.0004
 131165812.045 5 102207129.83541  24960022.371    24960022.684    24960021.986
        32.000           8.0004
 13  1  1  0 10 30.0000000  0  9G11G20G01G14G31G22G32G23G19
 114305096.927 8  89068908.11346  21751524.636    21751522.258    21751523.776
        48.000          37.0004
 125560598.981 6  97839418.27942  23893381.747    23893380.302    23893379.779
        39.000          17.0004
 114119574.678 8  88924359.97546  21716222.772    21716223.950    21716222.067
        48.000          38.0004
 117512719.112 7  91568371.05445  22361914.550    22361913.725    22361913.462
        45.000          32.0004
 108573788.891 8  84602953.94547  20660903.685    20660901.579    20660903.014
        50.000          43.0004
 118296314.386 7  92178952.21845  22511033.696    22511029.704    22511032.161
        45.000          32.0004
 116011590.891 8  90398650.13146  22076262.010    22076260.453    22076260.893
        48.000          36.0004
 132588768.025 6 103315928.08142  25230802.025    25230801.553    25230800.984
        37.000          15.0004
 131201149.654 5 102234665.64941  24966747.286    24966748.644    24966744.864
        31.000           8.0004
 13  1  1  0 11  0.0000000  0  9G11G20G01G14G31G22G32G23G19
 114274970.225 8  89045432.77046  21745791.504    21745789.454    21745790.577
        48.000          37.0004
 125427748.337 6  97735898.38143  23868100.455    23868100.546    23868099.156
        39.000          18.0004
 114025607.370 8  88851138.71646  21698341.202    21698342.452    21698340.153
        49.000          38.0004
 117539343.003 7  91589116.96045  22366981.170    22366979.144    22366979.897
        46.000          31.0004
 108489683.104 8  84537417.00747  20644898.792    20644896.812    20644898.339
        51.000          43.0004
 118313402.617 7  92192267.71445  22514285.734    22514282.491    22514283.735
        46.000          32.0004
 115913743.494 7  90322405.44045  22057642.115    22057640.585    22057640.892
        47.000          35.0004
 132466063.125 5 103220313.87542  25207452.869    25207452.823    25207451.689
        34.000          15.0004
 131236455.306 5 102262177.4414   24973466.341    24973465.537    24973463.468
        31.000           5.0004
 13  1  1  0 11 30.0000000  0  9G11G20G01G14G31G22G32G23G19
 114245392.091 8  89022384.87746  21740162.833    21740160.740    21740161.565
        49.000          36.0004
 125294909.229 6  97632387.49343  23842823.108    23842821.843    23842820.734
        40.000          18.0004
 113932148.715 8  88778313.81846  21680556.494    21680557.790    21680555.522
        48.000          38.0004
 117566051.875 7  91609929.05345  22372064.431    22372061.459    22372062.332
        45.000          31.0004
 108406152.324 8  84472328.11947  20629003.421    20629001.504    20629002.831
        51.000          44.0004
 118330725.236 7  92205765.84945  22517582.083    22517578.327    22517580.281
        45.000          32.0004
 115816017.483 8  90246255.33646  22039045.492    22039043.949    22039043.611
        48.000          36.0004
 132343470.387 5 103124787.17642  25184124.316    25184123.464    25184122.609
        33.000          13.0004
 131271728.572 5 102289663.1054   24980179.286    24980177.153    24980177.117
        31.000           5.0004
 13  1  1  0 12  0.0000000  0  9G11G20G01G14G31G22G32G23G19
 114216361.746 8  88999763.84746  21734638.775    21734636.745    21734637.708
        50.000          36.0004
 125162083.174 6  97528886.78343  23817546.658    23817545.132    23817544.105
        39.000          20.0004
 113839200.950 7  88705887.01746  21662869.028    21662870.511    21662868.107
        47.000          39.0004
 117592844.253 7  91630806.25745  22377162.443    22377159.684    22377160.763
        45.000          31.0004
 108323198.224 8  84407688.60747  20613217.723    20613215.608    20613217.352
        52.000          44.0004
 118348282.732 7  92219446.99645  22520923.123    22520919.592    22520920.932
        45.000          33.0004
 115718414.174 7  90170200.85846  22020471.992    22020470.621    22020470.342
        47.000          36.0004
 132220990.330 5 103029348.23742  25160817.098    25160816.965    25160816.629
        33.000          13.0004
 131306966.241 5 102317120.9324   24986881.690    24986881.484    24986881.064
        31.000           3.0004
 13  1  1  0 12 30.0000000  0  9G11G20G01G14G31G22G32G23G19
 114187878.449 8  88977569.07946  21729218.078    21729216.130    21729217.243
        49.000          36.0004
 125029271.358 6  97425397.17343  23792272.926    23792271.117    23792271.296
        39.000          20.0004
 113746765.872 7  88633859.71446  21645279.043    21645280.978    21645277.870
        47.000          39.0004
 117619719.180 7  91651747.77645  22382276.377    22382273.486    22382275.253
        46.000          31.0004
 108240821.886 8  84343499.28447  20597542.688    20597540.015    20597541.983
        52.000          44.0004
 118366075.137 7  92233311.20345  22524309.260    22524305.262    22524307.382
        45.000          33.0004
 115620934.372 8  90094242.62046  22001921.789    22001920.817    22001920.324
        48.000          36.0004
 132098623.201 6 102933997.35241  25137530.964    25137530.556    25137530.267
        36.000           8.0004
 131342165.787 5 102344549.1254   24993583.913    24993582.489    24993580.118
        32.000           3.0004
 13  1  1  0 13  0.0000000  0  9G11G20G01G14G31G22G32G23G19
 114159937.965 8  88955797.28946  21723901.628    21723899.017    21723900.373
        48.000          36.0004
 124896471.906 6  97321917.18243  23767002.520    23767001.229    23767000.778
        39.000          20.0004
 113654842.352 7  88562231.02746  21627786.453    21627788.071    21627785.444
        47.000          38.0004
 117646672.490 7  91672750.38245  22387405.111    22387402.422    22387403.801
        46.000          31.0004
 108159021.670 8  84279758.89247  20581976.228    20581974.078    20581975.632
        51.000          44.0004
 118384099.595 7  92247356.22845  22527739.188    22527735.841    22527737.433
        46.000          32.0004
 115523576.011 8  90018379.01046  21983395.340    21983393.892    21983393.796
        48.000          36.0004
 131976366.356 6 102838732.39341  25114266.702    25114264.568    25114264.818
        37.000          10.0004
 131377321.664 5 102371943.2934   25000272.959    25000272.109    25000271.227
        31.000           4.0004
 13  1  1  0 13 30.0000000  0  9G11G20G01G14G31G22G32G23G19
 114132541.911 8  88934449.71846  21718688.188    21718685.742    21718687.108
        48.000          36.0004
 124763688.143 6  97218449.42643  23741733.799    23741733.593    23741731.750
        38.000          19.0004
 113563434.688 8  88491004.30346  21610392.689    21610393.907    21610391.541
        48.000          39.0004
 117673704.797 7  91693814.52945  22392549.689    22392546.982    22392548.637
        45.000          31.0004
 108077801.352 8  84216470.37547  20566520.086    20566518.092    20566519.761
        51.000          44.0004
 118402358.225 7  92261583.72145  22531213.212    22531210.162    22531211.911
        45.000          32.0004
 115426342.543 8  89942612.71346  21964892.205    21964891.029    21964890.742
        48.000          36.0004
 131854222.463 6 102743555.39741  25091022.933    25091022.369    25091021.725
        37.000          10.0004
 131412433.612 5 102399303.1684   25006954.546    25006954.333    25006953.029
        32.000           4.0004
 13  1  1  0 14  0.0000000  0  9G11G20G01G14G31G22G32G23G19
 114105688.197 8  88913524.76246  21713577.968    21713575.669    21713577.035
        48.000          36.0004
 124630920.366 6  97114994.13943  23716468.619    23716467.890    23716467.686
        39.000          19.0004
 113472543.531 7  88420180.04746  21593096.291    21593097.844    21593094.978
        47.000          38.0004
 117700813.912 7  91714938.52945  22397707.877    22397706.056    22397706.454
        45.000          31.0004
 107997160.829 8  84153633.63347  20551175.223    20551172.366    20551174.383
        52.000          44.0004
 118420850.332 7  92275993.14645  22534731.788    22534728.852    22534730.188
        45.000          32.0004
 115329233.608 7  89866943.44946  21946412.728    21946412.116    21946411.631
        47.000          36.0004
 131732190.559 6 102648465.70941  25067801.523    25067800.136    25067799.247
        37.000           8.0004
 131447497.446 4 102426625.6514   25013625.061    25013627.253    25013623.339
        28.000           1.0004
 13  1  1  0 14 30.0000000  0  8G11G20G01G14G31G22G32G23
 114079375.704 8  88893021.53446  21708570.677    21708569.273    21708569.791
        48.000          37.0004
 124498169.275 6  97011551.86743  23691207.100    23691205.627    23691205.837
        39.000          20.0004
 113382170.609 7  88349759.61746  21575898.533    21575900.508    21575897.625
        46.000          39.0004
 117727998.593 7  91736121.42945  22402880.296    22402878.990    22402879.811
        44.000          30.0004
 107917101.127 8  84091249.49247  20535940.077    20535937.744    20535939.341
        50.000          44.0004
 118439575.636 7  92290584.27645  22538295.603    22538291.564    22538294.328
        45.000          32.0004
 115232250.155 8  89791371.98346  21927957.947    21927956.324    21927956.476
        49.000          36.0004
 131610270.835 6 102553463.44941  25044599.621    25044600.316    25044599.128
        37.000           8.0004
 13  1  1  0 15  0.0000000  0  8G11G20G01G14G31G22G32G23
 114053605.360 8  88872940.76046  21703667.054    21703665.047    21703666.149
        50.000          37.0004
 124365438.967 6  96908125.76243  23665948.721    23665947.940    23665947.278
        39.000          20.0004
 113292320.290 8  88279746.41446  21558800.798    21558802.828    21558799.862
        48.000          39.0004
 117755260.067 7  91757364.15145  22408068.032    22408066.445    22408067.366
        44.000          30.0004
 107837625.953 8  84029320.82647  20520816.296    20520814.053    20520815.801
        51.000          44.0004
 118458536.973 7  92305359.32045  22541903.869    22541900.645    22541902.410
        45.000          32.0004
 115135395.650 8  89715900.97146  21909527.480    21909525.639    21909525.855
        49.000          36.0004
 131488466.162 6 102458550.90841  25021421.408    25021420.763    25021420.207
        37.000           9.0004
 13  1  1  0 15 30.0000000  0  8G11G20G01G14G31G22G32G23
 114028374.707 8  88853280.52246  21698865.687    21698863.333    21698864.990
        48.000          36.0004
 124232728.436 6  96804715.08943  23640694.658    23640693.988    23640692.988
        38.000          20.0004
 113202992.347 8  88210140.24346  21541802.103    21541803.900    21541801.146
        48.000          39.0004
 117782595.069 7  91778664.15745  22413270.463    22413267.891    22413269.211
        45.000          30.0004
 107758734.429 8  83967846.94247  20505803.964    20505801.651    20505803.337
        51.000          44.0004
 118477732.219 7  92320316.63045  22545556.719    22545552.555    22545553.994
        45.000          32.0004
 115038669.135 8  89640529.68946  21891120.404    21891119.058    21891119.067
        49.000          36.0004
 131366774.677 6 102363726.53441  24998264.007    24998263.392    24998262.203
        38.000           9.0004
 13  1  1  0 16  0.0000000  0  9G11G20G01G14G31G22G32G23G25
 114003685.320 8  88834042.05746  21694167.753    21694165.509    21694166.640
        49.000          37.0004
 124100041.541 6  96701322.85143  23615445.194    23615443.512    23615444.189
        39.000          20.0004
 113114191.084 8  88140944.48046  21524903.843    21524905.608    21524902.874
        48.000          39.0004
 117810004.823 7  91800022.43845  22418486.357    22418483.894    22418484.752
        45.000          30.0004
 107680430.429 8  83906830.88447  20490903.112    20490900.834    20490902.472
        52.000          44.0004
 118497163.803 7  92335458.13145  22549253.691    22549250.257    22549252.999
        44.000          31.0004
 114942074.119 8  89565260.88446  21872738.769    21872737.731    21872737.245
        48.000          36.0004
 131245199.229 6 102268992.54342  24975129.349    24975127.651    24975127.649
        39.000          13.0004
 137529627.205 5                  26171018.021
        31.000
 13  1  1  0 16 30.0000000  0  9G11G20G01G14G31G22G32G23G25
 113979533.347 8  88815222.37046  21689571.426    21689569.463    21689570.413
        49.000          37.0004
 123967377.250 6  96597948.18343  23590199.991    23590197.898    23590198.467
        39.000          20.0004
 113025915.976 8  88072158.71846  21508105.840    21508107.404    21508104.670
        48.000          39.0004
 117837485.921 7  91821436.29345  22423715.632    22423712.813    22423714.671
        45.000          30.0004
 107602712.636 8  83846271.60847  20476113.800    20476111.382    20476113.274
        51.000          44.0004
 118516829.691 7  92350782.18745  22552996.079    22552993.968    22552994.453
        44.000          31.0004
 114845609.236 7  89490093.50246  21854381.884    21854381.289    21854380.284
        47.000          36.0004
 131123737.645 6 102174347.37342  24952015.118    24952014.430    24952013.502
        39.000          13.0004
 124855731.218 4                  23759255.805
        29.000
 13  1  1  0 17  0.0000000  0  9G11G20G01G14G31G22G32G23G25
 113955921.451 8  88796823.50546  21685078.448    21685076.266    21685077.543
        49.000          37.0004
 123834740.156 6  96494594.70243  23564960.692    23564958.024    23564959.619
        40.000          19.0004
 112938172.489 7  88003787.18846  21491408.834    21491410.231    21491407.772
        47.000          39.0004
 117865040.877 7  91842907.69045  22428959.364    22428957.358    22428958.236
        44.000          30.0004
 107525585.771 8  83786172.78847  20461437.138    20461434.778    20461436.488
        51.000          44.0004
 118536733.632 7  92366291.71245  22556784.614    22556780.556    22556782.390
        45.000          32.0004
 114749279.335 7  89415031.28246  21836051.189    21836050.075    21836049.434
        47.000          37.0004
 131002393.849 6 102079793.85242  24928924.866    24928922.797    24928923.233
        41.000          15.0004
 135813559.630 4                  25844461.130
        28.000
 13  1  1  0 17 30.0000000  0  9G11G20G01G14G31G22G32G23G25
 113932846.866 8  88778843.33246  21680687.364    21680685.463    21680686.441
        48.000          36.0004
 123702130.176 6  96391262.34943  23539725.390    23539724.168    23539724.619
        40.000          19.0004
 112850960.755 7  87935830.01246  21474812.928    21474814.067    21474811.688
        47.000          39.0004
 117892666.952 7  91864434.52145  22434216.646    22434214.074    22434215.598
        44.000          30.0004
 107449049.310 8  83726534.03147  20446872.683    20446870.401    20446872.014
        51.000          44.0004
 118556873.590 7  92381985.16845  22560617.057    22560612.623    22560615.310
        45.000          31.0004
 114653083.656 8  89340073.64746  21817745.667    21817744.182    21817744.193
        48.000          36.0004
 130881166.675 6 101985331.30842  24905855.240    24905854.215    24905854.766
        40.000          15.0004
 127866789.414 4                  24332241.060
        29.000
 13  1  1  0 18  0.0000000  0  8G11G20G01G14G31G22G32G23
 113910308.531 8  88761281.01246  21676398.825    21676396.571    21676397.991
        49.000          37.0004
 123569548.208 6  96287951.84343  23514496.727    23514494.073    23514494.260
        40.000          20.0004
 112764282.283 8  87868288.37246  21458318.435    21458319.958    21458317.368
        48.000          39.0004
 117920362.828 7  91886015.73945  22439487.078    22439485.151    22439485.868
        45.000          30.0004
 107373104.280 8  83667356.12447  20432420.515    20432418.358    20432419.986
        50.000          44.0004
 118577249.995 7  92397862.85845  22564494.774    22564490.329    22564493.064
        45.000          31.0004
 114557023.148 8  89265221.33646  21799465.935    21799464.739    21799464.843
        48.000          36.0004
 130760056.088 6 101890959.64442  24882809.192    24882807.234    24882807.195
        41.000          17.0004
 13  1  1  0 18 30.0000000  0  9G11G20G01G14G31G22G32G23G25
 113888306.056 8  88744136.24246  21672211.736    21672209.013    21672210.648
        48.000          36.0004
 123436996.509 6  96184664.93143  23489271.208    23489271.158    23489269.840
        38.000          21.0004
 112678139.808 8  87801164.38346  21441926.590    21441927.473    21441925.121
        48.000          39.0004
 117948128.071 7  91907651.00545  22444771.162    22444767.173    22444769.623
        45.000          30.0004
 107297752.381 8  83608640.40447  20418081.494    20418079.302    20418080.869
        50.000          44.0004
 118597863.582 7  92413925.39145  22568417.581    22568412.439    22568416.239
        47.000          32.0004
 114461099.804 8  89190475.90346  21781212.753    21781211.354    21781211.193
        48.000          37.0004
 130639063.376 6 101796679.76642  24859784.764    24859782.728    24859783.739
        41.000          17.0004
 121427081.339 4                  23106805.242
        28.000
 13  1  1  0 19  0.0000000  0  9G11G20G01G14G31G22G32G23G25
 113866836.291 8  88727406.57846  21668126.473    21668123.799    21668125.686
        49.000          37.0004
 123304474.713 6  96081401.33143  23464053.200    23464052.985    23464052.098
        38.000          21.0004
 112592533.089 7  87734457.87346  21425635.412    21425637.116    21425634.567
        47.000          39.0004
 117975959.831 7  91929338.11844  22450066.970    22450064.048    22450065.963
        45.000          29.0004
 107222992.687 8  83550386.14247  20403855.388    20403853.093    20403854.800
        49.000          44.0004
 118618712.456 7  92430171.24745  22572384.760    22572380.621    22572383.020
        46.000          32.0004
 114365312.761 8  89115836.69546  21762984.908    21762983.457    21762983.362
        48.000          37.0004
 130518186.883 6 101702490.47243  24836782.067    24836781.915    24836781.307
        40.000          18.0004
 118207873.436 4                  22494210.239
        27.000
 13  1  1  0 19 30.0000000  0  9G11G20G01G14G31G22G32G23G25
 113845896.822 8  88711090.12446  21664141.268    21664139.565    21664140.590
        49.000          37.0004
 123171982.776 6  95978160.97443  23438841.774    23438840.464    23438840.235
        39.000          21.0004
 112507462.589 8  87668169.19546  21409447.344    21409448.476    21409446.086
        48.000          39.0004
 118003855.781 7  91951075.23045  22455375.495    22455372.774    22455374.677
        44.000          30.0004
 107148825.059 8  83492593.22047  20389741.718    20389739.203    20389740.971
        51.000          44.0004
 118639795.472 7  92446599.52845  22576396.470    22576392.468    22576394.965
        45.000          32.0004
 114269661.978 8  89041303.64846  21744783.350    21744781.775    21744782.155
        48.000          37.0004
 130397425.359 6 101608390.75843  24813802.918    24813799.711    24813801.191
        40.000          18.0004
 138620405.028 5                  26378586.061
        34.000
 13  1  1  0 20  0.0000000  0  8G11G20G01G14G31G22G32G23
 113825489.019 8  88695187.95546  21660258.012    21660255.455    21660257.365
        49.000          37.0004
 123039524.523 6  95874946.83243  23413636.232    23413633.996    23413633.334
        40.000          21.0004
 112422932.557 8  87602301.66146  21393361.527    21393363.087    21393360.613
        48.000          39.0004
 118031817.454 7  91972863.54945  22460696.057    22460693.549    22460694.512
        45.000          30.0004
 107075253.138 8  83435264.49547  20375741.079    20375739.029    20375740.660
        51.000          44.0004
 118661115.328 7  92463212.39345  22580454.080    22580449.110    22580452.324
        46.000          31.0004
 114174151.086 8  88966879.60146  21726608.398    21726606.671    21726606.802
        49.000          37.0004
 130276781.854 6 101514382.98943  24790844.580    24790842.993    24790843.215
        39.000          18.0004
 13  1  1  0 20 30.0000000  0  9G11G20G01G14G31G22G32G25G23
 113805612.530 8  88679699.80046  21656475.845    21656473.002    21656474.692
        49.000          37.0004
 122907101.881 6  95771760.45943  23388436.495    23388435.216    23388435.470
        41.000          21.0004
 112338945.359 7  87536857.12246  21377379.282    21377380.743    21377378.239
        47.000          39.0004
 118059844.429 7  91994702.77044  22466029.325    22466027.850    22466028.156
        45.000          29.0004
 107002278.139 8  83378400.89247  20361854.812    20361852.257    20361854.024
        52.000          44.0004
 118682672.547 7  92480010.23545  22584555.093    22584551.879    22584553.340
        45.000          31.0004
 114078781.856 8  88892565.95246  21708459.915    21708458.232    21708458.312
        48.000          37.0004
 129033374.102 6 100545482.53741  24554234.540    24554234.317    24554232.330
        38.000          10.0004
 130156257.164 6 101420467.83642  24767907.032    24767907.522    24767906.116
        37.000          16.0004
 13  1  1  0 21  0.0000000  0 10G11G20G01G14G30G31G22G32G25G23
 113786263.036 8  88664622.29446  21652793.478    21652790.931    21652792.868
        48.000          37.0004
 122774713.479 6  95668600.74343  23363243.811    23363243.305    23363242.230
        40.000          22.0004
 112255499.688 8  87471834.55046  21361500.113    21361501.849    21361499.472
        49.000          39.0004
 118087932.806 7  92016589.83144  22471374.782    22471371.318    22471373.304
        45.000          29.0004
 132940701.417 5 103590155.9424   25297774.248    25297773.066    25297771.780
        35.000           1.0004
 106929898.485 8  83322001.19447  20348081.277    20348078.609    20348080.666
        51.000          44.0004
 118704464.503 7  92496990.97145  22588702.442    22588698.015    22588700.300
        44.000          30.0004
 113983552.291 8  88818361.13546  21690337.830    21690336.966    21690336.821
        48.000          37.0004
 128966782.685 6 100493593.18242  24541561.208    24541563.719    24541560.678
        36.000          13.0004
 130035848.710 6 101326643.23242  24744995.814    24744993.790    24744994.360
        38.000          16.0004
 13  1  1  0 21 30.0000000  0 10G11G20G01G14G30G31G22G32G25G23
 113767436.320 8  88649952.13746  21649210.788    21649208.580    21649209.993
        48.000          36.0004
 122642357.880 6  95565466.55043  23338058.106    23338055.580    23338055.857
        41.000          22.0004
 112172594.387 7  87407233.04146  21345724.034    21345725.422    21345723.215
        47.000          40.0004
 118116078.366 7  92038521.45144  22476730.042    22476727.895    22476728.647
        44.000          29.0004
 132808054.187 5 103486794.53341  25272532.300    25272534.633    25272530.260
        35.000           9.0004
 106858112.205 8  83266063.86547  20334420.660    20334418.117    20334420.211
        49.000          44.0004
 118726488.117 7  92514152.21845  22592892.579    22592889.108    22592891.281
        44.000          30.0004
 113888460.930 8  88744264.01146  21672242.874    21672241.760    21672241.229
        49.000          37.0004
 128900634.711 5 100442049.39942  24528973.947    24528977.341    24528972.182
        34.000          13.0004
 129915553.965 6 101232907.20142  24722105.074    24722103.124    24722104.058
        38.000          15.0004
 13  1  1  0 22  0.0000000  0 10G11G20G01G14G30G31G22G32G25G23
 113749135.857 8  88635692.04446  21645728.350    21645726.252    21645727.420
        49.000          36.0004
 122510041.030 6  95462362.59343  23312877.748    23312876.828    23312875.976
        39.000          22.0004
 112090235.665 8  87343057.44746  21330051.739    21330052.919    21330050.606
        48.000          39.0004
 118144284.874 7  92060500.56144  22482097.781    22482095.201    22482095.939
        45.000          29.0004
 132675235.994 5 103383299.92241  25247257.105    25247259.636    25247255.781
        35.000          10.0004
 106786924.728 8  83210593.13847  20320874.004    20320871.870    20320873.600
        52.000          44.0004
 118748748.170 7  92531497.71545  22597129.230    22597125.679    22597127.397
        44.000          30.0004
 113793513.466 8  88670279.01446  21654174.748    21654173.881    21654173.160
        49.000          37.0004
 128834936.908 5 100390856.34742  24516471.225    24516473.382    24516470.327
        35.000          13.0004
 129795377.684 6 101139263.53342  24699235.256    24699234.519    24699234.291
        39.000          15.0004
 13  1  1  0 22 30.0000000  0 10G11G20G01G14G30G31G22G32G25G23
 113731359.014 8  88621839.97246  21642345.447    21642343.466    21642344.673
        49.000          36.0004
 122377763.069 6  95359288.94443  23287705.822    23287704.753    23287704.542
        39.000          21.0004
 112008423.888 8  87279308.03946  21314483.495    21314484.728    21314482.354
        49.000          40.0004
 118172550.300 7  92082525.57744  22487476.170    22487474.269    22487475.655
        44.000          29.0004
 132542248.541 5 103279673.34341  25221951.071    25221953.310    25221950.259
        35.000          10.0004
 106716335.423 8  83155588.51347  20307441.736    20307439.067    20307441.174
        51.000          44.0004
 118771243.566 7  92549026.57444  22601409.875    22601406.675    22601407.748
        44.000          29.0004
 113698709.793 8  88596406.06646  21636134.254    21636133.054    21636132.459
        48.000          37.0004
 128769689.928 6 100340014.60342  24504057.220    24504057.773    24504054.886
        37.000          13.0004
 129675319.072 6 101045711.53042  24676389.079    24676387.694    24676388.315
        40.000          17.0004
 13  1  1  0 23  0.0000000  0 10G11G20G01G14G30G31G22G32G25G23
 113714101.047 8  88608392.21646  21639061.324    21639059.001    21639060.518
        48.000          36.0004
 122245521.772 6  95256243.83143  23262541.789    23262539.217    23262539.852
        40.000          22.0004
 111927157.058 8  87215983.25946  21299019.267    21299020.471    21299018.214
        48.000          40.0004
 118200869.498 7  92104592.50344  22492865.577    22492863.412    22492864.042
        43.000          29.0004
 132409090.259 6 103175913.67741  25196612.853    25196613.582    25196612.205
        37.000          10.0004
 106646341.704 8  83101047.98047  20294122.434    20294119.638    20294121.777
        51.000          45.0004
 118793970.474 7  92566735.84144  22605735.139    22605731.560    22605732.973
        44.000          29.0004
 113604047.497 8  88522643.26946  21618120.272    21618119.188    21618118.830
        49.000          37.0004
 128704891.915 5 100289522.68442  24491723.859    24491725.602    24491723.595
        34.000          13.0004
 129555374.649 6 100952248.48842  24653564.325    24653562.938    24653562.572
        39.000          17.0004
 13  1  1  0 23 30.0000000  0 10G11G20G01G14G30G31G22G32G25G23
 113697359.730 7  88595347.04445  21635875.139    21635872.675    21635874.378
        47.000          35.0004
 122113317.899 6  95153227.87043  23237384.022    23237380.965    23237381.883
        40.000          22.0004
 111846435.937 8  87153083.70646  21283658.211    21283659.545    21283657.078
        49.000          40.0004
 118229241.022 7  92126700.19744  22498264.802    22498262.174    22498263.251
        44.000          29.0004
 132275763.356 6 103072022.63141  25171240.490    25171242.343    25171240.229
        37.000          10.0004
 106576943.744 8  83046971.69047  20280916.124    20280913.468    20280915.626
        51.000          44.0004
 118816928.249 7  92584625.00144  22610104.081    22610099.772    22610102.675
        44.000          29.0004
 113509526.899 7  88448990.90146  21600133.803    21600132.139    21600132.406
        47.000          37.0004
 128640543.966 6 100239381.42542  24479480.109    24479481.066    24479479.225
        37.000          14.0004
 129435543.806 6 100858873.95243  24630760.220    24630759.329    24630760.567
        39.000          18.0004
 13  1  1  0 24  0.0000000  0 10G11G20G01G14G30G31G22G32G25G23
 113681133.133 8  88582702.95546  21632787.491    21632785.260    21632786.450
        48.000          36.0004
 121981152.041 6  95050241.58243  23212233.278    23212231.952    23212231.024
        40.000          22.0004
 111766261.308 8  87090610.00646  21268401.096    21268402.776    21268399.935
        48.000          40.0004
 118257663.076 7  92148847.26244  22503672.788    22503670.345    22503671.640
        44.000          29.0004
 132142269.524 6 102968001.52842  25145837.966    25145838.651    25145836.003
        36.000          13.0004
 106508141.423 8  82993359.54247  20267823.288    20267820.747    20267822.841
        52.000          44.0004
 118840116.241 7  92602693.57345  22614516.633    22614512.608    22614514.338
        45.000          30.0004
 113415148.397 8  88375449.25246  21582174.386    21582172.298    21582173.043
        50.000          37.0004
 128576647.103 5 100189591.72442  24467320.665    24467320.593    24467319.364
        34.000          13.0004
 129315826.184 6 100765587.66742  24607979.282    24607977.467    24607978.920
        39.000          17.0004
 13  1  1  0 24 30.0000000  0 10G11G20G01G14G30G31G22G32G25G23
 113665418.331 8  88570457.65645  21629797.398    21629794.700    21629796.388
        48.000          35.0004
 121849023.996 6  94947284.69043  23187090.011    23187088.688    23187088.322
        40.000          22.0004
 111686633.278 8  87028562.20246  21253248.799    21253249.921    21253247.517
        49.000          40.0004
 118286133.078 7  92171031.70744  22509090.079    22509087.456    22509089.357
        43.000          29.0004
 132008610.058 6 102863851.40442  25120403.092    25120404.432    25120401.559
        37.000          13.0004
 106439933.870 8  82940210.83147  20254843.978    20254841.565    20254843.406
        53.000          45.0004
 118863532.718 7  92620940.15245  22618972.072    22618968.171    22618969.937
        44.000          30.0004
 113320911.771 8  88302018.14546  21564241.685    21564239.876    21564239.832
        50.000          38.0004
 128513201.851 6 100140153.97542  24455248.059    24455248.317    24455246.684
        36.000          13.0004
 129196220.658 6 100672388.72642  24585219.813    24585217.898    24585218.635
        39.000          17.0004
 13  1  1  0 25  0.0000000  0 10G11G20G01G14G30G31G22G32G25G23
 115225637.349 8  89786212.74245  21926696.257    21926693.880    21926695.349
        48.000          35.0004
 123292362.669 6  96071964.25843  23461748.360    23461746.376    23461746.852
        41.000          22.0004
 113182978.785 8  88194545.74246  21537993.771    21537995.369    21537992.872
        49.000          40.0004
 119890072.101 7  93420854.33844  22814309.577    22814307.011    22814309.787
        44.000          29.0004
 133450214.527 6 103987179.58942  25394732.569    25394732.543    25394730.055
        37.000          13.0004
 107947746.973 8  84115130.17747  20541770.984    20541768.515    20541770.441
        50.000          44.0004
 120462599.770 7  93866966.41545  22923264.705    22923260.776    22923263.158
        44.000          30.0004
 114802244.126 8  89456303.14246  21846129.608    21846128.368    21846128.372
        48.000          38.0004
 130025634.765 5 101318673.16842  24743052.540    24743054.979    24743052.726
        34.000          12.0004
 130652154.051 6 101806882.41642  24862273.779    24862272.498    24862272.367
        39.000          17.0004
 13  1  1  0 25 30.0000000  0 10G11G20G01G14G30G31G22G32G25G23
 115210946.540 8  89774765.36345  21923901.208    21923899.037    21923900.133
        48.000          35.0004
 123160319.690 6  95969073.69143  23436620.758    23436619.468    23436619.466
        39.000          22.0004
 113104453.102 8  88133356.92146  21523050.542    21523052.373    21523049.584
        50.000          40.0004
 119918639.989 7  93443115.04644  22819746.245    22819743.699    22819744.679
        44.000          28.0004
 133316236.208 6 103882780.93842  25369235.091    25369236.668    25369234.182
        36.000          13.0004
 107880735.940 8  84062913.82647  20529019.291    20529016.576    20529018.771
        51.000          44.0004
 120486478.267 7  93885573.01645  22927808.295    22927804.644    22927805.978
        43.000          30.0004
 114708299.554 8  89383099.61946  21828252.813    21828251.383    21828251.381
        49.000          38.0004
 129963102.585 5 101269946.86142  24731152.972    24731155.729    24731151.617
        33.000          12.0004
 130532777.581 6 101713861.96342  24839557.552    24839556.141    24839557.329
        40.000          17.0004
 13  1  1  0 26  0.0000000  0 10G11G20G01G14G30G31G22G32G25G23
 115196765.314 8  89763715.06845  21921202.657    21921200.669    21921201.685
        48.000          35.0004
 123028321.428 6  95866218.00043  23411502.671    23411501.448    23411501.421
        41.000          22.0004
 113026480.537 8  88072599.10046  21508213.083    21508214.561    21508211.880
        48.000          40.0004
 119947255.117 7  93465412.55244  22825191.229    22825189.300    22825189.810
        44.000          28.0004
 133182101.914 5 103778260.77642  25343711.938    25343712.223    25343708.603
        35.000          13.0004
 107814323.902 8  84011164.22647  20516381.413    20516378.920    20516381.059
        50.000          44.0004
 120510587.391 7  93904359.33545  22932396.676    22932392.845    22932394.185
        44.000          30.0004
 114614502.411 8  89310010.97446  21810403.889    21810402.234    21810402.343
        49.000          38.0004
 129901029.234 6 101221578.07042  24719341.946    24719342.053    24719340.139
        36.000          13.0004
 130413515.640 6 101620930.76043  24816862.360    24816861.711    24816861.645
        41.000          19.0004
 13  1  1  0 26 30.0000000  0 10G11G20G01G14G30G31G22G32G25G23
 115183093.170 8  89753061.45546  21918601.472    21918599.266    21918600.316
        49.000          36.0004
 122896369.919 6  95763398.73843  23386391.952    23386390.679    23386391.026
        40.000          23.0004
 112949063.402 8  88012274.08646  21493480.851    21493482.521    21493479.940
        49.000          40.0004
 119975917.541 7  93487746.91944  22830645.509    22830642.997    22830644.327
        42.000          28.0004
 133047815.697 6 103673622.20142  25318157.809    25318158.467    25318155.790
        36.000          13.0004
 107748512.354 8  83959882.54747  20503857.705    20503855.311    20503857.300
        50.000          45.0004
 120534928.098 7  93923326.13944  22937028.695    22937024.054    22937026.710
        44.000          28.0004
 114520854.958 8  89237038.97046  21792583.267    21792581.961    21792581.721
        49.000          38.0004
 129839417.361 6 101173568.87842  24707619.305    24707618.822    24707617.182
        39.000          13.0004
 130294369.774 6 101528089.95943  24794190.329    24794187.244    24794189.251
        41.000          19.0004
 13  1  1  0 27  0.0000000  0 10G11G20G01G14G30G31G22G32G25G23
 115169928.406 7  89742803.21246  21916096.029    21916093.852    21916094.629
        47.000          36.0004
 122764466.429 6  95660616.89743  23361292.252    23361290.206    23361290.889
        40.000          23.0004
 112872203.019 8  87952382.90746  21478854.888    21478855.999    21478854.016
        49.000          40.0004
 120004625.882 7  93510117.06844  22836108.267    22836106.568    22836107.199
        43.000          28.0004
 132913379.719 6 103568866.98942  25292576.246    25292576.273    25292572.982
        38.000          13.0004
 107683302.342 8  83909069.60347  20491449.127    20491446.233    20491448.272
        52.000          44.0004
 120559500.167 7  93942473.21844  22941704.085    22941700.654    22941702.763
        44.000          29.0004
 114427358.075 8  89164184.29846  21774791.115    21774789.719    21774790.012
        50.000          38.0004
 129778268.667 6 101125920.64742  24695982.558    24695981.525    24695980.714
        37.000          15.0004
 130175339.784 6 101435339.46343  24771538.565    24771536.384    24771537.608
        40.000          19.0004
 13  1  1  0 27 30.0000000  0 10G11G20G01G14G30G31G22G32G25G23
 115157268.763 8  89732938.54346  21913687.304    21913684.767    21913685.903
        49.000          36.0004
 122632611.525 6  95557872.87643  23336201.127    23336199.614    23336199.752
        40.000          23.0004
 112795899.733 8  87892925.81346  21464334.939    21464335.852    21464333.914
        48.000          40.0004
 120033378.323 7  93532521.56344  22841580.252    22841576.590    22841579.214
        43.000          28.0004
 132778795.779 6 103463996.45742  25266963.457    25266965.452    25266962.990
        36.000          13.0004
 107618692.818 8  83858724.55447  20479154.260    20479151.432    20479153.752
        51.000          45.0004
 120584302.464 7  93961799.63944  22946423.112    22946419.869    22946421.168
        43.000          29.0004
 114334012.043 8  89091447.16046  21757028.237    21757026.508    21757026.919
        50.000          38.0004
 129717583.648 5 101078633.68142  24684432.503    24684434.614    24684431.803
        35.000          15.0004
 130056424.780 6 101342678.54042  24748909.089    24748907.403    24748907.264
        40.000          16.0004
 13  1  1  0 28  0.0000000  0 10G11G20G01G14G30G31G22G32G25G23
 115145113.702 8  89723467.08246  21911374.282    21911372.197    21911373.227
        49.000          36.0004
 122500807.904 6  95455168.85743  23311119.142    23311119.028    23311118.370
        40.000          22.0004
 112720156.182 8  87833904.89446  21449921.531    21449922.600    21449920.521
        50.000          40.0004
 120062175.426 7  93554960.88144  22847060.105    22847056.992    22847059.278
        43.000          27.0004
 132644067.844 5 103359013.73141  25241324.890    25241327.172    25241325.558
        35.000          11.0004
 107554685.693 8  83808848.92347  20466973.704    20466971.195    20466973.483
        51.000          44.0004
 120609336.319 7  93981306.53944  22951187.638    22951183.870    22951186.368
        43.000          29.0004
 114240819.365 8  89018829.52546  21739294.084    21739292.636    21739292.656
        48.000          38.0004
 129657365.314 6 101031710.36142  24672976.051    24672975.134    24672973.120
        37.000          13.0004
 129937626.123 6 101250108.29942  24726303.220    24726301.933    24726302.430
        40.000          16.0004
 13  1  1  0 28 30.0000000  0 10G11G20G01G14G30G31G22G32G25G23
 115133460.213 7  89714386.42646  21909156.293    21909154.354    21909155.333
        47.000          36.0004
 122369055.759 6  95352504.95643  23286048.804    23286046.965    23286047.154
        41.000          22.0004
 112644972.212 8  87775319.99646  21435614.628    21435615.728    21435613.620
        49.000          41.0004
 120091014.408 7  93577432.83444  22852548.281    22852546.269    22852547.167
        44.000          27.0004
 132509197.280 6 103253919.86941  25215661.624    25215662.803    25215659.916
        37.000          11.0004
 107491279.906 8  83759441.85747  20454908.158    20454905.566    20454907.706
        51.000          44.0004
 120634600.127 7  94000992.59944  22955995.048    22955991.627    22955993.622
        44.000          29.0004
 114147779.783 8  88946331.18346  21721589.338    21721587.333    21721587.793
        49.000          38.0004
 129597613.753 5 100985150.80742  24661603.412    24661603.402    24661602.304
        35.000          13.0004
 129818942.770 6 101157627.91242  24703718.394    24703716.677    24703716.228
        41.000          16.0004
 13  1  1  0 29  0.0000000  0 10G11G20G01G14G30G31G22G32G25G23
 115122307.647 8  89705696.12846  21907034.155    21907032.171    21907032.562
        48.000          36.0004
 122237357.295 6  95249882.87843  23260986.961    23260984.923    23260985.598
        41.000          23.0004
 112570349.950 8  87717172.80946  21421414.539    21421415.003    21421413.109
        48.000          40.0004
 120119895.229 7  93599937.36944  22858044.032    22858040.465    22858043.293
        44.000          28.0004
 132374187.166 5 103148717.31542  25189970.492    25189969.663    25189967.669
        35.000          12.0004
 107428476.954 8  83710504.54447  20442957.038    20442954.834    20442956.462
        49.000          44.0004
 120660094.779 7  94020858.55244  22960847.106    22960843.292    22960844.962
        44.000          29.0004
 114054895.325 8  88873953.72546  21703913.712    21703911.994    21703911.958
        49.000          38.0004
 129538331.474 6 100938956.89742  24650323.751    24650324.648    24650321.117
        36.000          12.0004
 129700375.537 6 101065238.00042  24681155.749    24681152.864    24681154.327
        40.000          16.0004
 13  1  1  0 29 30.0000000  0 10G11G20G01G14G30G31G22G32G25G23
 115111655.287 8  89697395.58146  21905006.813    21905004.943    21905005.905
        48.000          36.0004
 122105715.070 7  95147304.59443  23235936.637    23235934.546    23235935.530
        42.000          23.0004
 112496291.598 8  87659465.02646  21407321.604    21407322.248    21407320.638
        49.000          40.0004
 120148817.944 7  93622474.55544  22863547.787    22863545.107    22863546.636
        44.000          27.0004
 132239041.446 6 103043409.09242  25164252.342    25164253.002    25164250.166
        36.000          12.0004
 107366277.915 8  83662037.81147  20431120.984    20431118.645    20431120.410
        51.000          45.0004
 120685820.774 7  94040904.77544  22965742.291    22965739.327    22965739.996
        44.000          29.0004
 113962168.062 8  88801698.75346  21686268.148    21686266.954    21686266.489
        48.000          38.0004
 129479520.951 6 100893130.63642  24639131.593    24639132.998    24639130.297
        38.000          13.0004
 129581925.785 6 100972939.63142  24658615.459    24658612.601    24658613.905
        41.000          17.0004
 13  1  1  0 30  0.0000000  0 10G11G20G01G14G30G31G22G32G25G23
 115101497.292 8  89689480.25346  21903073.971    21903071.837    21903073.481
        49.000          36.0004
 121974126.246 6  95044767.93943  23210895.299    23210892.010    23210894.255
        41.000          23.0004
 112422794.321 8  87602194.43446  21393335.340    21393336.094    21393334.613
        50.000          40.0004
 120177777.405 7  93645040.36844  22869058.225    22869055.887    22869057.382
        43.000          27.0004
 132103758.628 5 102937994.04241  25138508.973    25138510.374    25138506.616
        35.000          11.0004
 107304679.271 8  83614038.90647  20419399.052    20419396.371    20419398.578
        51.000          45.0004
 120711774.055 7  94061128.11744  22970680.570    22970677.880    22970679.284
        43.000          29.0004
 113869595.070 8  88729563.98846  21668652.254    21668650.570    21668650.670
        49.000          38.0004
 129421179.576 5 100847669.91942  24628027.666    24628028.912    24628027.091
        35.000          13.0004
 129463589.098 6 100880729.41643  24636097.266    24636094.515    24636095.553
        41.000          18.0004
 13  1  1  0 30 30.0000000  0 10G11G20G01G14G30G31G22G32G25G23
 115091835.123 8  89681951.30646  21901234.927    21901233.415    21901234.275
        48.000          36.0004
 121842595.510 7  94942276.54443  23185866.099    23185864.071    23185865.000
        42.000          23.0004
 112349862.398 8  87545364.38546  21379456.913    21379457.913    21379455.938
        49.000          40.0004
 120206776.282 7  93667636.90944  22874577.014    22874573.458    22874576.207
        44.000          27.0004
 131968344.350 6 102832476.51741  25112741.303    25112741.791    25112738.940
        36.000          11.0004
 107243684.572 8  83566510.60947  20407791.981    20407789.534    20407791.444
        52.000          44.0004
 120737957.716 7  94081530.94144  22975662.914    22975660.319    22975661.951
        43.000          29.0004
 113777180.680 8  88657552.81146  21651066.083    21651064.661    21651065.085
        50.000          38.0004
 129363312.028 6 100802578.39141  24617017.851    24617016.813    24617016.198
        37.000          11.0004
 129345369.079 6 100788610.08943  24613600.312    24613597.027    24613598.295
        41.000          18.0004
 13  1  1  0 31  0.0000000  0 10G11G20G01G14G30G31G22G32G25G23
 115082667.531 8  89674807.73146  21899491.004    21899488.742    21899490.211
        49.000          36.0004
 121711124.733 7  94839831.85244  23160848.142    23160847.084    23160847.100
        42.000          24.0004
 112277497.408 8  87488976.10546  21365686.310    21365686.991    21365685.354
        49.000          40.0004
 120235813.595 7  93690263.38944  22880102.054    22880099.782    22880100.755
        43.000          27.0004
 131832801.955 5 102726859.20941  25086947.079    25086948.277    25086945.737
        35.000          11.0004
 107183294.324 8  83519453.31347  20396300.256    20396297.818    20396299.789
        50.000          45.0004
 120764372.060 7  94102113.56244  22980690.042    22980686.124    22980689.167
        43.000          29.0004
 113684926.589 8  88585666.52846  21633510.816    21633509.273    21633509.478
        50.000          38.0004
 129305920.215 6 100757857.58241  24606096.993    24606097.362    24606096.071
        38.000          11.0004
 129227266.118 6 100696581.97643  24591126.427    24591123.223    24591125.316
        41.000          19.0004
 13  1  1  0 31 30.0000000  0 10G11G20G01G14G30G31G22G32G25G23
 115073992.476 8  89668047.95746  21897840.590    21897837.955    21897839.475
        48.000          36.0004
 121579714.747 7  94737434.54144  23135841.774    23135840.016    23135840.517
        42.000          25.0004
 112205700.034 8  87433030.11746  21352023.618    21352024.402    21352022.449
        48.000          40.0004
 120264887.913 7  93712918.71344  22885635.641    22885633.052    22885634.022
        44.000          27.0004
 131697133.289 6 102621143.44642  25061130.860    25061130.450    25061129.065
        37.000          12.0004
 107123508.607 8  83472867.08547  20384923.474    20384920.905    20384922.841
        50.000          44.0004
 120791015.875 7  94122874.95044  22985760.252    22985756.373    22985758.446
        43.000          29.0004
 113592833.363 8  88513905.60446  21615986.408    21615984.412    21615984.955
        48.000          38.0004
 129249004.969 6 100713508.10042  24595265.557    24595266.727    24595263.915
        37.000          14.0004
 129109279.804 6 100604644.74443  24568674.011    24568671.355    24568672.641
        41.000          19.0004
 13  1  1  0 32  0.0000000  0 10G11G20G01G14G30G31G22G32G25G23
 115065811.129 8  89661672.89746  21896283.516    21896281.085    21896282.338
        49.000          36.0004
 121448370.309 6  94635088.30544  23110847.274    23110846.260    23110845.720
        41.000          25.0004
 112134474.419 8  87377529.66146  21338469.817    21338470.559    21338468.672
        50.000          40.0004
 120294001.469 7  93735604.62644  22891175.083    22891171.707    22891172.877
        44.000          27.0004
 131561344.382 5 102515334.00342  25035289.383    25035291.267    25035288.218
        35.000          12.0004
 107064330.542 8  83426754.34847  20373662.157    20373659.369    20373661.540
        52.000          44.0004
 120817892.378 7  94143817.69844  22990874.844    22990870.851    22990872.826
        43.000          29.0004
 113500905.180 8  88442273.28746  21598492.821    21598491.157    21598491.289
        49.000          39.0004
 129192570.800 6 100669533.51342  24584526.581    24584527.763    24584525.600
        36.000          14.0004
 128991413.232 7 100512800.81543  24546244.957    24546242.065    24546242.983
        42.000          20.0004
 13  1  1  0 32 30.0000000  0 10G11G20G01G14G30G31G22G32G25G23
 115058116.303 8  89655676.93646  21894819.112    21894816.401    21894818.268
        49.000          36.0004
 121317087.460 7  94532790.05144  23085865.101    23085864.260    23085863.865
        42.000          25.0004
 112063816.306 8  87322471.41446  21325024.122    21325025.049    21325023.262
        50.000          40.0004
 120323147.831 7  93758316.08444  22896722.074    22896718.948    22896720.272
        43.000          27.0004
 131425432.507 6 102409428.80142  25009426.835    25009428.498    25009424.907
        36.000          12.0004
 107005755.145 8  83381111.21947  20362515.462    20362512.907    20362514.892
        51.000          44.0004
 120844995.819 7  94164937.24044  22996032.536    22996027.906    22996030.791
        43.000          28.0004
 113409138.025 8  88370766.43846  21581030.336    21581028.164    21581028.899
        50.000          38.0004
 129136613.790 6 100625930.72642  24573878.253    24573877.902    24573876.895
        40.000          15.0004
 128873661.141 6 100421046.07043  24523835.452    24523833.713    24523835.240
        40.000          20.0004
 13  1  1  0 33  0.0000000  0 10G11G20G01G14G30G31G22G32G25G23
 115050908.467 8  89650060.46046  21893447.720    21893444.857    21893447.182
        50.000          36.0004
 121185869.798 6  94430542.60144  23060894.583    23060893.279    23060893.302
        40.000          25.0004
 111993729.048 7  87267857.99146  21311686.233    21311687.799    21311685.785
        47.000          41.0004
 120352328.451 7  93781054.25944  22902273.114    22902272.071    22902272.209
        42.000          27.0004
 131289402.555 6 102303431.60742  24983542.546    24983541.634    24983540.800
        39.000          12.0004
 106947785.047 8  83335939.74947  20351484.247    20351481.548    20351483.669
        52.000          45.0004
 120872328.523 7  94186235.47144  23001233.518    23001229.450    23001231.573
        44.000          29.0004
 113317535.303 8  88299387.72546  21563598.567    21563596.880    21563597.312
        48.000          38.0004
 129081137.643 6 100582702.64942  24563321.693    24563321.956    24563320.853
        37.000          15.0004
 128756025.765 6 100329382.27143  24501450.487    24501449.267    24501449.294
        39.000          20.0004
 13  1  1  0 33 30.0000000  0 10G11G20G01G14G30G31G22G32G25G23
 115044187.575 8  89644823.41346  21892168.475    21892165.604    21892167.618
        48.000          36.0004
 121054720.879 7  94328348.70544  23035938.766    23035937.355    23035936.573
        43.000          25.0004
 111924215.170 8  87213691.35246  21298458.784    21298459.768    21298457.788
        50.000          41.0004
 120381543.942 7  93803819.55944  22907834.102    22907831.948    22907832.912
        42.000          26.0004
 131153258.720 6 102197345.67042  24957633.848    24957633.866    24957632.971
        37.000          15.0004
 106890421.352 8  83291240.79447  20340568.463    20340565.740    20340567.788
        51.000          45.0004
 120899891.886 7  94207713.40644  23006478.666    23006475.398    23006476.895
        44.000          29.0004
 113226099.698 8  88228139.22446  21546199.139    21546197.582    21546197.650
        50.000          39.0004
 129026145.117 6 100539851.33942  24552855.984    24552857.748    24552855.194
        36.000          16.0004
 128638508.770 6 100237810.70643  24479088.058    24479086.336    24479088.656
        41.000          19.0004
 13  1  1  0 34  0.0000000  0 10G11G20G01G14G30G31G22G32G25G23
 115037951.364 8  89639964.05446  21890981.911    21890979.669    21890980.998
        49.000          36.0004
 120923641.794 7  94226209.21344  23010994.799    23010992.098    23010993.757
        42.000          25.0004
 111855275.664 8  87159972.28146  21285339.932    21285340.893    21285339.110
        48.000          41.0004
 120410793.275 7  93826611.25244  22913399.734    22913397.655    22913399.368
        43.000          26.0004
 131017003.975 5 102091173.22342  24931704.955    24931705.970    24931703.995
        35.000          15.0004
 106833664.428 8  83247014.64847  20329768.101    20329765.210    20329767.414
        52.000          45.0004
 120927685.532 7  94229370.77744  23011768.456    23011763.545    23011766.715
        44.000          29.0004
 113134832.412 8  88157021.89046  21528831.305    21528829.694    21528830.027
        50.000          38.0004
 128971637.598 6 100497378.01142  24542484.226    24542485.518    24542483.132
        36.000          15.0004
 128521110.103 6 100146331.35543  24456747.060    24456745.578    24456747.118
        41.000          19.0004
 13  1  1  0 34 30.0000000  0 10G11G20G01G14G30G31G22G32G25G23
 115032199.061 8  89635481.74146  21889887.402    21889884.467    21889886.581
        49.000          36.0004
 120792634.977 7  94124126.02844  22986065.854    22986063.593    22986063.792
        42.000          25.0004
 111786912.307 8  87106702.15946  21272331.196    21272332.027    21272329.879
        50.000          41.0004
 120440076.328 7  93849429.22644  22918972.205    22918970.293    22918970.504
        43.000          26.0004
 130880641.492 6 101984916.86442  24905756.775    24905757.276    24905755.207
        36.000          14.0004
 106777515.171 8  83203262.01247  20319082.978    20319080.023    20319082.370
        51.000          45.0004
 120955709.728 7  94251207.82844  23017101.220    23017096.222    23017099.186
        44.000          29.0004
 113043735.414 8  88086037.24546  21511496.192    21511494.838    21511494.761
        50.000          39.0004
 128917617.184 6 100455284.24642  24532203.199    24532205.256    24532202.356
        36.000          15.0004
 128403830.718 6 100054944.92143  24434429.077    24434428.509    24434428.909
        40.000          20.0004
 13  1  1  0 35  0.0000000  0 10G11G20G01G14G30G31G22G32G25G23
 115026930.780 8  89631376.60346  21888884.687    21888882.105    21888883.902
        49.000          36.0004
 120661703.686 7  94022101.68844  22961149.368    22961147.541    22961148.632
        42.000          25.0004
 111719127.938 8  87053883.19146  21259431.928    21259432.924    21259431.073
        49.000          41.0004
 120469394.233 7  93872274.35144  22924552.011    22924548.280    22924549.932
        43.000          27.0004
 130744176.071 5 101878580.30642  24879786.459    24879789.571    24879785.319
        35.000          14.0004
 106721975.601 8  83159984.46947  20308514.021    20308511.352    20308513.593
        50.000          44.0004
 120983966.199 7  94273225.87744  23022477.220    23022473.324    23022475.484
        43.000          29.0004
 112952811.845 8  88015187.74046  21494194.087    21494192.176    21494192.827
        50.000          39.0004
 128864087.019 6 100413572.52042  24522017.821    24522018.201    24522016.324
        37.000          15.0004
 128286672.568 6  99963652.99343  24412135.934    24412133.488    24412134.606
        41.000          20.0004
 13  1  1  0 35 30.0000000  0 10G11G20G01G14G30G31G22G32G25G23
 115022142.881 8  89627645.77145  21887973.528    21887971.140    21887972.362
        49.000          35.0004
 120530848.086 6  93920136.34344  22936247.298    22936246.086    22936245.328
        40.000          25.0004
 111651921.924 8  87001514.89246  21246642.903    21246644.126    21246641.803
        50.000          41.0004
 120498744.655 7  93895144.80444  22930136.713    22930134.136    22930135.538
        43.000          26.0004
 130607608.584 6 101772164.22142  24853800.848    24853799.955    24853797.923
        38.000          13.0004
 106667044.209 8  83117180.81947  20298061.077    20298058.292    20298060.478
        51.000          45.0004
 121012453.438 7  94295423.70944  23027898.594    23027894.682    23027896.711
        44.000          28.0004
 112862061.245 8  87944473.01246  21476924.744    21476922.938    21476923.339
        50.000          39.0004
 128811046.726 5 100372242.47942  24511921.876    24511924.500    24511921.793
        34.000          15.0004
 128169634.082 6  99872454.28843  24389863.926    24389862.222    24389862.204
        41.000          20.0004
 13  1  1  0 36  0.0000000  0 10G11G20G01G14G30G31G22G32G25G23
 115017831.796 8  89624286.49246  21887153.251    21887151.013    21887152.099
        49.000          36.0004
 120400067.910 6  93818229.79444  22911360.569    22911358.977    22911359.946
        41.000          24.0004
 111585293.598 8  86949596.73946  21233964.120    21233964.936    21233962.885
        49.000          41.0004
 120528124.708 7  93918038.38544  22935727.604    22935724.904    22935726.494
        43.000          26.0004
 130470940.740 6 101665669.89442  24827792.055    24827794.380    24827791.957
        36.000          13.0004
 106612719.514 8  83074849.92347  20287723.290    20287720.435    20287722.807
        52.000          45.0004
 121041169.444 7  94317799.81644  23033363.407    23033358.445    23033361.461
        43.000          28.0004
 112771483.306 8  87873892.81246  21459688.464    21459686.352    21459686.614
        48.000          39.0004
 128758496.110 5 100331293.97242  24501924.065    24501924.906    24501922.711
        35.000          14.0004
 128052713.573 7  99781347.49143  24367614.655    24367613.104    24367614.181
        42.000          22.0004
 13  1  1  0 36 30.0000000  0 10G11G20G01G14G30G31G22G32G25G23
 115013992.413 8  89621294.78445  21886422.221    21886419.961    21886421.408
        48.000          35.0004
 120269361.679 6  93716380.84844  22886488.563    22886486.373    22886487.150
        41.000          25.0004
 111519240.687 8  86898126.96146  21221394.784    21221395.742    21221393.747
        48.000          41.0004
 120557530.407 7  93940951.93644  22941322.964    22941320.002    22941321.433
        42.000          26.0004
 130334171.632 6 101559096.74542  24801765.596    24801767.939    24801764.764
        37.000          12.0004
 106558998.210 8  83032989.20647  20277500.481    20277497.567    20277499.978
        50.000          44.0004
 121070110.726 7  94340351.46744  23038870.287    23038866.591    23038868.588
        43.000          28.0004
 112681076.136 8  87803445.69946  21442484.297    21442482.628    21442482.845
        49.000          39.0004
 128706433.072 6 100290725.45642  24492018.013    24492016.552    24492016.817
        38.000          14.0004
 127935908.024 7  99690330.29743  24345387.492    24345385.153    24345385.944
        42.000          23.0004
 13  1  1  0 37  0.0000000  0 10G11G20G01G14G30G31G22G32G25G23
 115010628.990 7  89618673.93545  21885782.171    21885779.991    21885781.320
        47.000          35.0004
 120138736.854 7  93614595.34944  22861632.211    22861628.836    22861630.725
        43.000          26.0004
 111453770.044 8  86847110.89346  21208936.240    21208936.773    21208934.936
        50.000          41.0004
 120586966.859 7  93963889.41444  22946923.643    22946922.687    22946922.701
        42.000          26.0004
 130197310.240 6 101452451.68742  24775721.560    24775723.225    24775719.793
        36.000          12.0004
 106505886.394 8  82991603.41247  20267393.509    20267390.663    20267393.111
        52.000          44.0004
 121099282.888 7  94363083.00244  23044421.456    23044417.727    23044419.065
        43.000          27.0004
 112590846.865 8  87733137.19846  21425314.593    21425312.686    21425313.040
        50.000          39.0004
 128654864.883 5 100250542.49742  24482202.921    24482203.093    24482202.131
        34.000          14.0004
 127819223.771 6  99599407.60443  24323182.240    24323179.544    24323180.610
        40.000          23.0004
 13  1  1  0 37 30.0000000  0 10G11G20G01G14G30G31G22G32G25G23
 115007735.112 8  89616418.96145  21885231.313    21885229.375    21885230.038
        48.000          35.0004
 120008190.785 7  93512871.20544  22836789.993    22836787.859    22836787.736
        42.000          26.0004
 111388878.112 8  86796545.76946  21196587.739    21196588.616    21196586.582
        48.000          41.0004
 120616429.419 6  93986847.26444  22952529.655    22952528.625    22952529.525
        41.000          26.0004
 130060355.011 6 101345733.47042  24749660.424    24749661.510    24749658.687
        37.000          12.0004
 106453379.759 8  82950689.19747  20257402.125    20257398.991    20257401.182
        51.000          44.0004
 121128681.245 7  94385990.80044  23050015.958    23050011.809    23050013.467
        43.000          27.0004
 112500792.310 8  87662964.84146  21408177.665    21408175.915    21408175.965
        49.000          39.0004
 128603788.220 6 100210742.54442  24472484.312    24472484.262    24472482.617
        36.000          14.0004
 127702656.010 6  99508575.69943  24301000.290    24300997.344    24300998.830
        40.000          22.0004
 13  1  1  0 38  0.0000000  0 10G11G20G01G14G30G31G22G32G25G23
 115005310.286 7  89614529.49445  21884770.406    21884767.762    21884768.982
        47.000          35.0004
 119877726.507 7  93411210.79744  22811963.585    22811961.040    22811962.421
        42.000          26.0004
 111324567.243 8  86746433.41546  21184349.837    21184350.635    21184348.798
        50.000          41.0004
 120645918.164 6  94009825.51244  22958141.875    22958139.304    22958141.495
        41.000          25.0004
 129923309.831 6 101238945.14842  24723580.923    24723582.830    24723579.734
        38.000          12.0004
 106401479.163 8  82910247.22147  20247525.334    20247522.543    20247524.863
        51.000          44.0004
 121158307.210 7  94409075.95944  23055653.901    23055649.617    23055652.638
        43.000          27.0004
 112410915.328 8  87592930.86446  21391074.640    21391072.684    21391072.833
        50.000          39.0004
 128553205.911 6 100171327.78542  24462858.772    24462858.198    24462858.026
        36.000          12.0004
 127586206.514 6  99417835.95543  24278840.820    24278837.394    24278839.766
        40.000          20.0004
 13  1  1  0 38 30.0000000  0 10G11G20G01G14G30G31G22G32G25G23
 115003350.615 8  89613002.48145  21884396.785    21884394.284    21884396.148
        48.000          34.0004
 119747343.230 7  93309613.51244  22787151.601    22787151.266    22787149.910
        42.000          26.0004
 111260836.037 8  86696772.74846  21172222.012    21172222.986    21172220.995
        49.000          41.0004
 120675430.251 7  94032821.95144  22963757.928    22963755.451    22963756.529
        42.000          25.0004
 129786175.759 6 101132087.56142  24697485.590    24697485.211    24697483.873
        36.000          16.0004
 106350182.595 8  82870275.91447  20237763.855    20237761.119    20237763.409
        52.000          45.0004
 121188158.151 7  94432336.42444  23061334.159    23061330.460    23061332.588
        43.000          28.0004
 112321214.857 8  87523034.41746  21374005.131    21374002.762    21374003.941
        50.000          39.0004
 128503116.780 6 100132297.31942  24453327.947    24453327.495    24453326.849
        37.000          13.0004
 127469872.844 6  99327186.47243  24256702.516    24256700.921    24256701.001
        40.000          20.0004
 13  1  1  0 39  0.0000000  0 10G11G20G01G14G30G31G22G32G25G23
 115001855.427 7  89611837.41045  21884113.333    21884110.730    21884111.673
        47.000          35.0004
 119617044.771 7  93208082.30344  22762357.304    22762354.877    22762356.324
        42.000          27.0004
 111197687.327 8  86647565.97946  21160205.356    21160206.189    21160204.181
        50.000          41.0004
 120704967.161 7  94055837.72844  22969379.059    22969377.139    22969378.476
        43.000          25.0004
 129648957.570 6 101025164.43442  24671373.264    24671374.543    24671373.090
        37.000          16.0004
 106299492.243 8  82830776.98247  20228117.741    20228115.078    20228117.198
        51.000          45.0004
 121218236.137 7  94455773.80644  23067057.589    23067054.208    23067055.936
        44.000          28.0004
 112231694.319 8  87453278.17746  21356969.864    21356968.049    21356968.586
        50.000          39.0004
 128453524.118 6 100093653.72542  24443890.035    24443890.073    24443887.660
        36.000          13.0004
 127353657.065 6  99236628.84243  24234588.251    24234585.707    24234587.378
        41.000          21.0004
 13  1  1  0 39 30.0000000  0 10G11G20G01G14G30G31G22G32G25G23
 115000821.174 8  89611031.50745  21883916.323    21883913.384    21883915.309
        48.000          35.0004
 119486830.656 7  93106616.83444  22737577.917    22737575.597    22737576.392
        42.000          26.0004
 111135119.634 8  86598811.94546  21148298.375    21148299.434    21148297.531
        49.000          40.0004
 120734525.480 7  94078870.18044  22975003.979    22975001.409    22975002.359
        43.000          25.0004
 129511655.590 6 100918175.99642  24645245.930    24645246.386    24645244.547
        37.000          16.0004
 106249405.432 8  82791748.33147  20218586.330    20218583.943    20218585.884
        52.000          45.0004
 121248538.125 7  94479385.73244  23072824.262    23072820.713    23072822.280
        44.000          28.0004
 112142352.699 8  87383661.36846  21339968.484    21339966.868    21339967.119
        50.000          39.0004
 128404426.770 6 100055396.07142  24434547.026    24434546.927    24434545.593
        38.000          14.0004
 127237557.190 6  99146161.53743  24212494.983    24212492.277    24212492.672
        41.000          21.0004
 13  1  1  0 40  0.0000000  0 10G11G20G01G14G30G31G22G32G25G23
 115000247.148 8  89610584.21545  21883806.624    21883804.468    21883805.702
        48.000          35.0004
 119356703.993 7  93005219.49244  22712815.744    22712813.587    22712813.322
        42.000          26.0004
 111073135.259 8  86550512.44546  21136503.169    21136503.987    21136502.279
        50.000          41.0004
 120764105.965 6  94101919.93244  22980631.455    22980630.279    22980630.966
        41.000          25.0004
 129374274.779 6 100811126.11842  24619102.039    24619103.185    24619102.404
        37.000          15.0004
 106199923.542 8  82753191.05047  20209170.505    20209167.863    20209169.907
        51.000          44.0004
 121279065.600 7  94503173.40344  23078632.919    23078629.016    23078631.682
        43.000          27.0004
 112053192.870 8  87314186.20446  21323002.037    21323000.080    21323000.306
        48.000          39.0004
 128355827.302 5 100017526.39942  24425298.404    24425299.349    24425296.743
        35.000          14.0004
 127121574.681 7  99055785.69943  24190424.622    24190421.196    24190423.217
        42.000          21.0004
 13  1  1  0 40 30.0000000  0 10G11G20G01G14G30G31G22G32G25G23
 115000131.679 8  89610494.25345  21883784.830    21883782.905    21883783.841
        48.000          35.0004
 119226666.451 7  92903891.61344  22688069.789    22688067.875    22688068.299
        42.000          26.0004
 111011735.165 8  86502668.23046  21124819.160    21124820.085    21124818.199
        49.000          40.0004
 120793708.345 6  94124986.75244  22986265.512    22986264.573    22986264.287
        41.000          25.0004
 129236817.565 5 100704016.67342  24592945.121    24592944.629    24592942.674
        34.000          15.0004
 106151046.625 8  82715105.18347  20199869.597    20199866.878    20199868.844
        51.000          45.0004
 121309818.239 7  94527136.52244  23084484.922    23084480.585    23084483.456
        43.000          27.0004
 111964216.285 8  87244853.83346  21306070.354    21306068.616    21306068.876
        50.000          39.0004
 128307727.107 6  99980045.80842  24416146.612    24416146.481    24416145.045
        38.000          14.0004
 127005709.986 6  98965501.66543  24168376.240    24168373.240    24168375.024
        41.000          21.0004
 13  1  1  0 41  0.0000000  0 10G11G20G01G14G30G31G22G32G25G23
 115000470.419 8  89610758.21045  21883849.524    21883846.968    21883848.315
        48.000          35.0004
 119096717.836 6  92802633.04844  22663340.926    22663339.531    22663339.510
        41.000          26.0004
 110950918.059 8  86455278.28546  21113245.845    21113246.800    21113244.625
        49.000          40.0004
 120823329.953 7  94148068.50644  22991903.077    22991900.078    22991902.042
        42.000          25.0004
 129099285.329 6 100596848.80641  24566772.954    24566774.447    24566772.292
        36.000          11.0004
 106102772.985 8  82677489.40147  20190683.148    20190680.602    20190682.614
        51.000          45.0004
 121340794.350 7  94551273.74244  23090380.037    23090375.333    23090377.819
        43.000          26.0004
 111875422.235 8  87175663.68646  21289173.475    21289171.657    21289172.129
        51.000          39.0004
 128260125.234 6  99942953.46942  24407087.900    24407087.813    24407086.125
        37.000          14.0004
 126889960.950 7  98875307.72643  24146348.677    24146346.540    24146348.670
        42.000          22.0004
 13  1  1  0 41 30.0000000  0 10G11G20G01G14G30G31G22G32G25G23
 115001263.193 8  89611375.96745  21884000.226    21883998.201    21883999.258
        48.000          35.0004
 118966861.933 7  92701446.70744  22638630.570    22638629.575    22638630.421
        42.000          26.0004
 110890686.234 8  86408344.40446  21101783.953    21101784.840    21101782.831
        48.000          40.0004
 120852971.358 7  94171165.73744  22997542.920    22997542.038    22997541.526
        42.000          25.0004
 128961682.376 6 100489625.81341  24540588.354    24540588.970    24540587.285
        37.000          11.0004
 106055103.373 8  82640344.29547  20181612.187    20181609.176    20181611.607
        51.000          45.0004
 121371995.019 6  94575585.91844  23096316.944    23096314.624    23096315.105
        41.000          25.0004
 111786813.754 8  87106618.13746  21272311.613    21272310.235    21272310.226
        50.000          40.0004
 128213024.285 5  99906251.48042  24398123.850    24398125.885    24398123.404
        35.000          17.0004
 126774329.135 7  98785205.16543  24124345.140    24124342.589    24124343.812
        42.000          22.0004
 13  1  1  0 42  0.0000000  0 10G11G20G01G14G30G31G22G32G25G23
 115002509.666 8  89612347.24345  21884236.840    21884235.092    21884235.841
        48.000          35.0004
 118837101.356 7  92600334.62644  22613938.682    22613936.148    22613937.470
        43.000          28.0004
 110831042.031 8  86361868.41146  21090434.153    21090435.389    21090433.049
        48.000          40.0004
 120882633.634 6  94194279.21444  23003187.969    23003185.507    23003187.202
        41.000          25.0004
 128824013.195 6 100382351.23742  24514392.350    24514392.052    24514390.370
        37.000          14.0004
 106008039.516 8  82603671.19347  20172656.247    20172653.015    20172655.748
        51.000          45.0004
 121403421.460 7  94600074.01844  23102297.886    23102292.696    23102295.247
        43.000          26.0004
 111698393.739 8  87037719.45246  21255486.147    21255484.249    21255484.638
        49.000          39.0004
 128166427.003 6  99869941.95342  24389257.522    24389257.976    24389256.604
        37.000          16.0004
 126658816.385 7  98695195.37143  24102363.760    24102361.100    24102362.396
        42.000          22.0004
 13  1  1  0 42 30.0000000  0 10G11G20G01G14G30G31G22G32G25G23
 115004204.300 8  89613667.73245  21884559.556    21884557.121    21884558.434
        48.000          34.0004
 118707434.747 7  92499295.79544  22589263.792    22589260.870    22589262.093
        43.000          28.0004
 110771982.656 8  86315848.13146  21079195.329    21079196.522    21079194.055
        49.000          40.0004
 120912312.531 7  94217405.62644  23008835.660    23008833.768    23008835.725
        42.000          25.0004
 128686277.407 6 100275024.75042  24488180.987    24488181.999    24488179.749
        37.000          14.0004
 105961577.440 8  82567467.01247  20163814.502    20163811.754    20163814.203
        52.000          45.0004
 121435069.843 7  94624735.12044  23108320.496    23108317.075    23108318.612
        43.000          26.0004
 111610160.154 8  86968966.03346  21238695.497    21238694.011    21238694.297
        50.000          39.0004
 128120330.892 6  99834022.97442  24380485.227    24380484.917    24380484.579
        37.000          16.0004
 126543419.327 7  98605275.75143  24080404.200    24080402.632    24080403.075
        42.000          23.0004
 13  1  1  0 43  0.0000000  0 10G11G20G01G14G30G31G22G32G25G23
 116581765.904 8  90842936.51445  22184760.215    22184757.077    22184759.158
        49.000          34.0004
 120153288.781 7  93625935.37044  22864400.831    22864398.322    22864399.250
        43.000          28.0004
 112288931.707 8  87497886.36546  21367861.249    21367862.728    21367860.011
        48.000          40.0004
 122517427.551 7  95468144.59744  23314278.754    23314275.067    23314277.594
        42.000          25.0004
 130123903.530 6 101395253.00842  24761752.250    24761753.190    24761750.811
        38.000          16.0004
 107491139.423 8  83759333.52847  20454880.534    20454877.648    20454880.106
        50.000          45.0004
 123042359.984 7  95877168.99844  23414177.013    23414172.461    23414174.817
        43.000          26.0004
 113097538.284 8  88127962.00046  21521734.446    21521732.292    21521732.696
        50.000          39.0004
 129650159.580 6 101026097.31342  24671601.828    24671602.218    24671601.488
        38.000          15.0004
 128003562.680 7  99743049.92443  24358260.405    24358257.174    24358259.253
        42.000          23.0004
 13  1  1  0 43 30.0000000  0 10G11G20G01G14G30G31G22G32G25G23
 116584351.391 8  90844951.17345  22185251.637    22185249.170    22185250.982
        48.000          35.0004
 120023815.702 7  93525047.33544  22839762.688    22839759.724    22839761.260
        44.000          29.0004
 112231044.666 8  87452779.58646  21356845.755    21356847.099    21356844.644
        50.000          41.0004
 122547138.559 6  95491296.03144  23319931.301    23319930.237    23319931.817
        41.000          24.0004
 129986044.029 6 101287830.16742  24735518.850    24735518.631    24735516.989
        38.000          16.0004
 107445881.022 8  83724067.26247  20446268.140    20446265.249    20446267.777
        52.000          44.0004
 123074452.167 6  95902175.87544  23420283.433    23420279.961    23420281.009
        41.000          26.0004
 113009682.387 8  88059502.87346  21505015.729    21505013.918    21505014.034
        51.000          39.0004
 129605069.690 6 100990962.38942  24663021.598    24663021.540    24663021.013
        36.000          15.0004
 127888397.576 6  99653311.07143  24336344.548    24336342.078    24336343.749
        41.000          23.0004
 13  1  1  0 44  0.0000000  0 10G11G20G01G14G30G31G22G32G25G23
 116587378.821 8  90847310.21745  22185828.099    22185825.342    22185826.448
        49.000          34.0004
 119894442.002 7  93424236.71444  22815143.455    22815141.297    22815140.594
        43.000          28.0004
 112173744.370 8  87408130.01846  21345941.792    21345943.145    21345940.667
        49.000          40.0004
 122576864.644 7  95514459.22544  23325588.980    23325586.560    23325587.962
        42.000          24.0004
 129848126.774 6 101180362.34543  24709274.100    24709273.186    24709271.757
        40.000          18.0004
 107401223.932 8  83689269.55447  20437770.155    20437767.229    20437769.451
        51.000          45.0004
 123106765.607 7  95927355.16844  23426433.729    23426429.387    23426431.285
        42.000          27.0004
 112922017.039 8  87991192.23846  21488333.428    21488331.984    21488332.002
        50.000          39.0004
 129560483.908 6 100956220.29042  24654536.639    24654536.620    24654536.443
        38.000          15.0004
 127773348.541 7  99563662.60043  24314451.366    24314448.491    24314450.871
        42.000          22.0004
 13  1  1  0 44 30.0000000  0 10G11G20G01G14G30G31G22G32G25G23
 116590846.118 8  90850012.00445  22186487.503    22186485.065    22186486.485
        48.000          34.0004
 119765169.345 7  93323504.83044  22790542.733    22790542.883    22790540.833
        42.000          27.0004
 112117031.584 8  87363938.24546  21335149.823    21335151.127    21335148.646
        49.000          40.0004
 122606604.811 7  95537633.37944  23331248.321    23331245.806    23331247.632
        42.000          24.0004
 129710155.032 6 101072852.02042  24683018.776    24683017.277    24683017.354
        40.000          17.0004
 107357167.702 8  83654940.04847  20429386.690    20429383.609    20429385.873
        52.000          45.0004
 123139300.180 6  95952706.74944  23432623.774    23432620.446    23432622.049
        40.000          27.0004
 112834543.767 8  87923031.27646  21471687.978    21471686.438    21471686.347
        49.000          39.0004
 129516403.571 6 100921872.04642  24646149.357    24646148.843    24646149.335
        40.000          15.0004
 127658415.503 6  99474104.52343  24292580.094    24292577.943    24292578.969
        41.000          23.0004
 13  1  1  0 45  0.0000000  0 10G11G20G01G14G30G31G22G32G25G23
 116594750.411 8  90853054.32745  22187230.764    22187228.665    22187229.879
        48.000          34.0004
 119635998.753 7  93222852.47944  22765962.757    22765961.054    22765960.907
        43.000          27.0004
 112060906.032 8  87320204.05346  21324469.389    21324470.766    21324468.575
        48.000          40.0004
 122636357.596 7  95560817.37944  23336911.069    23336908.920    23336910.089
        42.000          24.0004
 129572130.708 6 100965300.72442  24656753.053    24656753.500    24656751.637
        39.000          17.0004
 107313711.145 8  83621077.82547  20421116.957    20421113.922    20421116.456
        50.000          45.0004
 123172054.658 6  95978229.68944  23438857.024    23438854.056    23438855.076
        41.000          26.0004
 112747263.206 8  87855020.46546  21455079.246    21455077.416    21455077.681
        50.000          40.0004
 129472828.640 6 100887917.60942  24637855.300    24637858.302    24637854.569
        36.000          15.0004
 127543597.517 7  99384636.09443  24270731.243    24270727.553    24270730.146
        43.000          23.0004
 13  1  1  0 45 30.0000000  0 10G11G20G01G14G30G31G22G32G25G23
 116599089.057 6  90856435.09645  22188056.573    22188053.114    22188055.109
        39.000          33.0004
 119506931.111 5  93122280.34044  22741402.678    22741400.944    22741401.522
        34.000          26.0004
 112005367.494 6  87276927.28745  21313901.128    21313901.953    21313900.181
        39.000          34.0004
 122666121.746 5  95584010.21244  23342575.530    23342572.758    23342574.298
        34.000          25.0004
 129434056.372 5 100857710.41042  24630478.229    24630479.253    24630476.879
        32.000          16.0004
 107270853.128 6  83587681.99146  20412961.508    20412958.341    20412960.836
        39.000          39.0004
 123205027.899 5  96003923.06744  23445132.040    23445127.830    23445129.787
        33.000          26.0004
 112660175.915 6  87787160.26345  21438507.027    21438504.952    21438505.328
        40.000          34.0004
 129429759.324 5 100854357.16042  24629661.806    24629661.482    24629659.783
        34.000          15.0004
 127428893.890 5  99295256.78043  24248904.139    24248899.108    24248903.522
        34.000          23.0004
 13  1  1  0 46  0.0000000  0 10G11G20G01G14G30G31G22G32G25G23
 116603862.627 7  90860154.76545  22188964.369    22188962.192    22188963.033
        47.000          34.0004
 119377971.341 7  93021792.24744  22716862.459    22716860.656    22716860.746
        44.000          27.0004
 111950419.354 8  87234110.55646  21303444.544    21303446.135    21303443.487
        49.000          40.0004
 122695899.612 6  95607213.78444  23348241.014    23348238.036    23348239.782
        41.000          24.0004
 129295937.597 6 100750085.47542  24604195.072    24604194.398    24604192.762
        38.000          16.0004
 107228596.019 8  83554754.39447  20404920.145    20404917.010    20404919.486
        52.000          45.0004
 123238222.472 6  96029788.96744  23451448.627    23451444.373    23451447.701
        41.000          24.0004
 112573286.215 8  87719454.04046  21421971.875    21421970.430    21421970.512
        49.000          39.0004
 129387199.314 6 100821193.54442  24621561.990    24621562.715    24621560.817
        36.000          15.0004
 127314308.055 7  99205969.21443  24227098.130    24227094.908    24227097.108
        42.000          23.0004
 13  1  1  0 46 30.0000000  0 10G11G20G01G14G30G31G22G32G25G23
 116609069.319 8  90864211.92745  22189955.450    22189952.680    22189954.495
        48.000          34.0004
 119249121.478 7  92921389.79544  22692343.321    22692341.570    22692342.309
        44.000          28.0004
 111896062.332 8  87191754.44346  21293100.683    21293102.338    21293099.793
        49.000          40.0004
 122725690.993 6  95630427.83944  23353910.983    23353908.545    23353909.652
        41.000          24.0004
 129157777.870 6 100642428.64742  24577904.435    24577904.193    24577902.832
        40.000          17.0004
 107186940.068 8  83522295.25047  20396993.149    20396990.352    20396992.498
        51.000          44.0004
 123271638.305 6  96055827.28844  23457806.265    23457803.236    23457805.052
        40.000          25.0004
 112486595.763 8  87651903.05846  21405475.530    21405473.892    21405474.477
        51.000          40.0004
 129345149.811 6 100788427.74442  24613559.155    24613561.621    24613557.933
        36.000          17.0004
 127199840.054 7  99116773.45644  24205316.196    24205313.635    24205315.399
        43.000          24.0004
 13  1  1  0 47  0.0000000  0 10G11G20G01G14G30G31G22G32G25G23
 116614707.247 7  90868605.12345  22191028.049    22191025.615    22191027.260
        47.000          34.0004
 119120383.891 7  92821074.85644  22667844.332    22667842.812    22667843.191
        43.000          29.0004
 111842297.265 8  87149859.59446  21282869.870    21282871.048    21282868.764
        49.000          41.0004
 122755495.507 6  95653652.12844  23359581.393    23359579.034    23359580.345
        41.000          24.0004
 129019580.413 6 100534742.46042  24551606.509    24551606.834    24551605.384
        41.000          17.0004
 107145884.654 8  83490304.05147  20389180.746    20389177.626    20389180.144
        49.000          45.0004
 123305275.363 6  96082037.95444  23464207.347    23464204.598    23464205.521
        41.000          25.0004
 112400106.352 8  87584508.73446  21389017.417    21389015.566    21389015.755
        49.000          40.0004
 129303611.933 6 100756060.62842  24605656.656    24605657.563    24605655.624
        39.000          17.0004
 127085490.003 7  99027669.63244  24183556.337    24183552.220    24183555.771
        42.000          24.0004
 13  1  1  0 47 30.0000000  0 10G11G20G01G14G30G31G22G32G25G23
 116620772.336 7  90873331.17945  22192182.238    22192179.340    22192181.410
        47.000          34.0004
 118991758.142 7  92720847.04344  22643367.749    22643366.153    22643366.963
        43.000          29.0004
 111789122.801 8  87108424.95146  21272750.941    21272752.105    21272749.909
        48.000          41.0004
 122785310.744 7  95676884.78544  23365255.561    23365252.624    23365254.987
        42.000          24.0004
 128881346.615 6 100427027.90143  24525301.101    24525301.464    24525299.298
        39.000          22.0004
 107105427.605 8  83458779.10447  20381481.610    20381478.919    20381481.083
        50.000          45.0004
 123339131.576 7  96108419.41944  23470650.392    23470646.975    23470648.844
        42.000          24.0004
 112313817.627 8  87517270.79646  21372596.765    21372595.274    21372595.432
        49.000          40.0004
 129262584.688 6 100724091.36243  24597847.666    24597849.035    24597847.248
        36.000          19.0004
 126971256.162 7  98938656.30944  24161818.359    24161814.560    24161817.499
        43.000          24.0004
 13  1  1  0 48  0.0000000  0 10G11G20G01G14G30G31G22G32G25G23
 116627261.341 7  90878387.55245  22193417.111    22193415.013    22193416.194
        47.000          34.0004
 118863245.084 7  92620707.07344  22618912.805    22618909.962    22618910.951
        43.000          29.0004
 111736538.124 8  87067449.88446  21262744.430    21262745.853    21262743.091
        49.000          41.0004
 122815134.752 6  95700124.28344  23370930.026    23370927.206    23370928.190
        40.000          24.0004
 128743078.406 6 100319286.54243  24498988.743    24498989.481    24498987.129
        38.000          21.0004
 107065567.476 8  83427719.29247  20373896.676    20373893.639    20373896.129
        51.000          45.0004
 123373205.189 7  96134970.29844  23477134.329    23477131.358    23477132.347
        42.000          25.0004
 112227729.762 8  87450189.37846  21356215.155    21356213.442    21356213.740
        50.000          40.0004
 129222067.715 6 100692519.71643  24590138.730    24590138.083    24590138.480
        39.000          19.0004
 126857137.803 6  98849732.99643  24140101.955    24140098.268    24140100.025
        41.000          23.0004
 13  1  1  0 48 30.0000000  0 10G11G20G01G14G30G31G22G32G25G23
 116634170.685 8  90883771.45545  22194731.970    22194729.561    22194731.327
        48.000          34.0004
 118734844.783 7  92520654.94944  22594479.112    22594476.526    22594477.601
        44.000          28.0004
 111684541.988 8  87026933.42346  21252849.840    21252851.047    21252848.854
        49.000          41.0004
 122844965.462 7  95723369.00443  23376607.599    23376605.271    23376606.678
        42.000          23.0004
 128604776.904 6 100211519.17343  24472671.334    24472670.621    24472669.449
        38.000          21.0004
 107026301.815 8  83397122.69147  20366424.639    20366421.664    20366423.997
        50.000          45.0004
 123407494.439 7  96161689.14444  23483660.056    23483656.099    23483657.967
        42.000          26.0004
 112141842.576 8  87383264.31646  21339871.369    21339869.247    21339869.963
        50.000          41.0004
 129182060.260 5 100661345.09842  24582525.299    24582526.429    24582523.264
        34.000          16.0004
 126743133.032 7  98760898.21643  24118407.742    24118405.142    24118406.105
        42.000          23.0004
 13  1  1  0 49  0.0000000  0 10G11G20G01G14G30G31G22G32G25G23
 116641499.081 7  90889481.89845  22196127.036    22196124.352    22196125.778
        47.000          34.0004
 118606560.540 7  92420693.24944  22570067.269    22570063.799    22570066.277
        43.000          28.0004
 111633135.951 8  86986876.78046  21243067.773    21243068.908    21243066.690
        50.000          41.0004
 122874803.988 6  95746619.81243  23382285.021    23382283.252    23382284.082
        41.000          23.0004
 128466446.663 6 100103729.49643  24446346.965    24446347.759    24446345.691
        36.000          18.0004
 106987631.187 8  83366989.75647  20359065.946    20359062.918    20359065.431
        52.000          45.0004
 123442000.204 7  96188576.74044  23490226.135    23490222.563    23490224.589
        43.000          26.0004
 112056158.744 8  87316497.72846  21323566.003    21323564.127    21323564.687
        50.000          40.0004
 129142564.102 6 100630568.92142  24575011.446    24575009.383    24575009.674
        38.000          16.0004
 126629243.212 7  98672152.97343  24096734.832    24096731.890    24096733.799
        42.000          23.0004
 13  1  1  0 49 30.0000000  0 10G11G20G01G14G30G31G22G32G25G23
 116649244.668 8  90895517.43145  22197600.425    22197598.168    22197599.597
        48.000          34.0004
 118478394.868 7  92320823.95544  22545677.801    22545674.641    22545676.952
        44.000          28.0004
 111582320.797 8  86947280.56046  21233397.876    21233399.098    21233396.917
        49.000          41.0004
 122904649.420 6  95769875.99444  23387963.897    23387961.582    23387963.313
        40.000          24.0004
 128328091.058 6  99995920.01743  24420020.662    24420018.048    24420017.813
        38.000          18.0004
 106949555.745 8  83337320.60347  20351820.335    20351817.575    20351819.961
        51.000          45.0004
 123476722.560 7  96215633.10544  23496833.523    23496830.519    23496832.622
        43.000          25.0004
 111970680.056 8  87249890.99346  21307300.355    21307298.265    21307298.832
        50.000          40.0004
 129103580.437 6 100600192.06342  24567590.224    24567591.276    24567589.736
        39.000          16.0004
 126515468.638 6  98583497.55343  24075083.647    24075080.642    24075082.906
        40.000          23.0004
 13  1  1  0 50  0.0000000  0 10G11G20G01G14G30G31G22G32G25G23
 116657407.781 7  90901878.31045  22199153.518    22199152.075    22199153.044
        47.000          34.0004
 118350351.634 7  92221050.06644  22521311.878    22521308.275    22521311.464
        44.000          28.0004
 111532099.307 8  86908146.94746  21223841.069    21223842.299    21223839.951
        49.000          41.0004
 122934503.924 6  95793139.27043  23393645.406    23393642.821    23393644.404
        40.000          22.0004
 128189715.678 6  99888095.09642  24393687.226    24393687.188    24393684.841
        37.000          16.0004
 106912077.117 8  83308116.50447  20344688.256    20344685.705    20344687.814
        51.000          45.0004
 123511663.456 6  96242859.76344  23503482.740    23503480.274    23503480.158
        41.000          24.0004
 111885410.440 8  87183447.16446  21291073.852    21291071.935    21291072.414
        49.000          40.0004
 129065112.603 6 100570217.11142  24560271.271    24560271.000    24560268.939
        38.000          16.0004
 126401811.843 6  98494933.92843  24053455.222    24053453.298    24053453.740
        41.000          23.0004
 13  1  1  0 50 30.0000000  0 10G11G20G01G14G30G31G22G32G25G23
 116665983.906 8  90908561.00845  22200785.922    22200784.241    22200784.917
        48.000          34.0004
 118222430.628 7  92121371.39444  22496969.850    22496966.569    22496968.260
        45.000          29.0004
 111482469.513 8  86869474.39546  21214396.742    21214397.815    21214395.618
        49.000          41.0004
 122964365.017 6  95816407.67643  23399327.898    23399325.943    23399327.013
        41.000          22.0004
 128051321.531 6  99780255.63142  24367351.697    24367352.675    24367349.236
        37.000          16.0004
 106875192.587 8  83279375.33747  20337669.570    20337666.519    20337668.941
        51.000          45.0004
 123546820.147 6  96270254.58244  23510172.348    23510168.689    23510170.127
        41.000          24.0004
 111800349.098 8  87117165.62846  21274887.288    21274885.136    21274885.839
        50.000          40.0004
 129027158.923 6 100540642.87142  24553049.314    24553048.422    24553047.766
        36.000          16.0004
 126288270.770 6  98406460.46743  24031849.225    24031845.862    24031848.505
        40.000          23.0004
 13  1  1  0 51  0.0000000  0 10G11G20G01G14G30G31G22G32G25G23
 116674970.121 7  90915563.26045  22202495.677    22202493.550    22202495.244
        46.000          34.0004
 118094633.104 7  92021788.95345  22472650.899    22472647.243    22472649.842
        44.000          30.0004
 111433430.954 8  86831262.54246  21205065.045    21205066.174    21205064.172
        48.000          41.0004
 122994231.684 6  95839680.40043  23405011.661    23405008.473    23405010.263
        41.000          22.0004
 127912910.574 6  99672403.04042  24341013.164    24341012.886    24341012.445
        37.000          16.0004
 106838900.496 8  83251095.81147  20330763.366    20330760.408    20330762.927
        50.000          45.0004
 123582191.614 6  96297816.77743  23516903.897    23516900.399    23516902.412
        41.000          23.0004
 111715496.738 8  87051046.93546  21258740.291    21258738.490    21258738.608
        51.000          40.0004
 128989719.294 5 100511469.18142  24545923.986    24545923.273    24545922.454
        35.000          14.0004
 126174844.430 6  98318076.40643  24010265.163    24010261.630    24010264.525
        40.000          22.0004
 13  1  1  0 51 30.0000000  0 10G11G20G01G14G30G31G22G32G25G23
 116684365.319 7  90922884.20545  22204283.411    22204281.120    22204282.198
        47.000          33.0004
 117966962.227 7  91922305.22445  22448355.212    22448352.862    22448353.324
        44.000          30.0004
 111384985.124 8  86793512.56846  21195846.194    21195847.094    21195845.219
        49.000          40.0004
 123024104.021 6  95862957.57743  23410696.257    23410694.020    23410695.565
        41.000          22.0004
 127774487.702 6  99564541.16742  24314670.807    24314670.557    24314669.884
        37.000          16.0004
 106803201.988 8  83223278.81747  20323970.194    20323967.268    20323969.488
        51.000          45.0004
 123617778.806 6  96325547.04443  23523675.858    23523671.025    23523673.368
        39.000          23.0004
 111630856.177 8  86985093.28246  21242632.972    21242632.022    21242632.058
        50.000          40.0004
 128952795.821 6 100482697.69442  24538896.376    24538897.139    24538896.178
        36.000          14.0004
 126061534.356 6  98229782.96543  23988703.206    23988700.043    23988702.556
        41.000          21.0004
 13  1  1  0 52  0.0000000  0 10G11G20G01G14G30G31G22G32G25G23
 116694165.064 7  90930520.37545  22206147.981    22206146.321    22206146.829
        47.000          33.0004
 117839417.562 7  91822919.83245  22424084.371    22424082.609    22424082.874
        44.000          30.0004
 111337129.973 8  86756222.86046  21186739.798    21186740.400    21186738.558
        50.000          41.0004
 123053979.497 6  95886237.17343  23416380.359    23416378.897    23416378.634
        40.000          22.0004
 127636053.313 5  99456670.30442  24288327.761    24288327.904    24288325.400
        35.000          16.0004
 106768093.394 8  83195921.50147  20317289.167    20317286.002    20317288.447
        51.000          44.0004
 123653578.957 6  96353443.24943  23530487.904    23530484.581    23530487.262
        39.000          23.0004
 111546426.466 8  86919303.92846  21226566.939    21226565.315    21226565.647
        50.000          40.0004
 128916386.607 5 100454326.90742  24531967.408    24531969.688    24531966.583
        33.000          15.0004
 125948338.184 6  98141578.27343  23967161.519    23967159.398    23967160.845
        40.000          21.0004
 13  1  1  0 52 30.0000000  0 10G11G20G01G14G30G31G22G32G25G23
 116704367.561 7  90938470.35945  22208089.613    22208087.513    22208088.388
        47.000          33.0004
 117712001.783 7  91723634.87845  22399838.505    22399836.046    22399837.149
        44.000          30.0004
 111289866.251 8  86719394.00646  21177745.867    21177746.335    21177744.813
        49.000          40.0004
 123083858.397 6  95909519.43643  23422067.120    23422065.686    23422065.790
        40.000          22.0004
 127497611.411 6  99348793.57242  24261984.229    24261983.420    24261982.102
        37.000          15.0004
 106733574.647 8  83169023.80747  20310720.310    20310717.318    20310719.824
        50.000          45.0004
 123689592.317 6  96381505.60043  23537342.408    23537337.636    23537340.797
        40.000          23.0004
 111462209.848 8  86853680.61346  21210541.598    21210539.543    21210539.949
        49.000          41.0004
 128880492.943 6 100426357.86242  24525138.531    24525138.555    24525137.308
        36.000          15.0004
 125835256.690 6  98053462.96243  23945642.495    23945640.441    23945642.060
        39.000          22.0004
 13  1  1  0 53  0.0000000  0 10G11G20G01G14G30G31G22G32G25G23
 116714968.458 7  90946730.80245  22210107.115    22210104.768    22210106.240
        47.000          33.0004
 117584714.596 7  91624450.09645  22375616.859    22375613.812    22375615.989
        45.000          30.0004
 111243191.920 8  86683024.41346  21168863.645    21168864.802    21168862.500
        49.000          40.0004
 123113737.917 6  95932802.19143  23427752.401    23427750.837    23427751.841
        40.000          22.0004
 127359162.752 6  99240911.56742  24235637.503    24235638.035    24235636.400
        38.000          15.0004
 106699643.132 8  83142583.69847  20304263.051    20304260.311    20304262.541
        52.000          45.0004
 123725816.220 6  96409731.97043  23544235.180    23544230.990    23544233.415
        39.000          23.0004
 111378205.450 8  86788222.66446  21194555.597    21194553.991    21194554.152
        50.000          41.0004
 128845113.199 6 100398789.27142  24518405.364    24518405.748    24518404.805
        37.000          13.0004
 125722287.282 6  97965434.99643  23924146.405    23924144.007    23924144.458
        41.000          22.0004
 13  1  1  0 53 30.0000000  0 10G11G20G01G14G30G31G22G32G25G23
 116725968.334 7  90955302.14445  22212200.557    22212198.319    22212199.763
        47.000          33.0004
 117457560.667 7  91525369.16745  22351419.456    22351417.058    22351418.056
        44.000          30.0004
 111197110.132 8  86647116.54446  21160094.738    21160095.554    21160093.779
        50.000          41.0004
 123143620.650 6  95956087.42543  23433439.817    23433437.220    23433438.459
        41.000          23.0004
 127220713.542 6  99133029.16442  24209291.832    24209291.873    24209290.072
        38.000          17.0004
 106666300.956 8  83116602.81047  20297918.589    20297915.682    20297918.043
        51.000          45.0004
 123762253.158 6  96438124.39543  23551168.659    23551164.965    23551166.957
        39.000          21.0004
 111294417.821 8  86722933.62546  21178611.387    21178609.448    21178610.055
        50.000          41.0004
 128810250.864 5 100371623.85042  24511770.196    24511770.098    24511769.014
        34.000          14.0004
 125609433.345 6  97877496.97443  23902669.680    23902667.843    23902669.061
        40.000          22.0004
 13  1  1  0 54  0.0000000  0 10G11G20G01G14G30G31G22G32G25G23
 116737364.476 7  90964182.26945  22214369.564    22214366.738    22214368.609
        47.000          33.0004
 117330541.804 7  91426393.49644  22327248.020    22327245.355    22327246.019
        44.000          29.0004
 111151620.668 8  86611670.23146  21151438.327    21151439.228    21151437.375
        50.000          41.0004
 123173505.721 6  95979374.52243  23439124.832    23439122.819    23439124.278
        39.000          23.0004
 127082266.700 6  99025148.61642  24182946.087    24182946.323    24182943.975
        38.000          17.0004
 106633546.928 8  83091080.21347  20291685.636    20291682.648    20291685.249
        52.000          44.0004
 123798902.571 6  96466682.34843  23558142.601    23558139.640    23558140.260
        40.000          21.0004
 111210848.054 8  86657814.34446  21162709.061    21162706.788    21162707.488
        50.000          41.0004
 128775906.232 6 100344861.88342  24505236.932    24505236.740    24505235.040
        37.000          14.0004
 125496694.573 7  97789648.70943  23881217.254    23881213.680    23881215.839
        42.000          22.0004
 13  1  1  0 54 30.0000000  0 10G11G20G01G14G30G31G22G32G25G23
 116749151.408 7  90973366.89745  22216611.890    22216609.983    22216610.813
        46.000          33.0004
 117203656.664 7  91327521.98045  22303103.857    22303099.695    22303102.119
        45.000          30.0004
 111106720.296 7  86576682.94346  21142894.239    21142894.976    21142893.263
        47.000          41.0004
 123203389.430 6  96002660.53143  23444812.899    23444810.577    23444811.686
        41.000          22.0004
 126943821.886 6  98917269.61842  24156600.435    24156601.638    24156599.384
        37.000          15.0004
 106601376.893 8  83066012.67647  20285563.842    20285560.739    20285563.351
        51.000          45.0004
 123835760.422 6  96495402.75143  23565156.557    23565152.188    23565155.297
        40.000          22.0004
 111127494.279 8  86592863.37046  21146846.922    21146845.229    21146845.566
        49.000          41.0004
 128742076.415 6 100318501.06142  24498798.370    24498798.200    24498797.118
        36.000          15.0004
 125384067.503 7  97701887.44943  23859783.617    23859780.466    23859782.504
        42.000          23.0004
 13  1  1  0 55  0.0000000  0 10G11G20G01G14G30G31G22G32G25G23
 116761329.057 7  90982855.98145  22218929.579    22218926.739    22218928.082
        47.000          33.0004
 117076909.438 7  91228757.94245  22278984.097    22278981.019    22278982.576
        45.000          30.0004
 111062411.307 8  86542156.48046  21134462.786    21134463.262    21134461.702
        49.000          41.0004
 123233273.416 6  96025946.78043  23450499.458    23450496.840    23450498.156
        40.000          22.0004
 126805384.592 6  98809396.49042  24130256.933    24130257.581    24130255.200
        36.000          15.0004
 106569792.317 8  83041401.34247  20279553.518    20279550.431    20279552.714
        52.000          44.0004
 123872828.567 6  96524286.98043  23572210.129    23572206.793    23572208.630
        40.000          23.0004
 111044360.374 8  86528083.71646  21131027.054    21131025.169    21131025.505
        50.000          41.0004
 128708764.264 6 100292543.56742  24492459.932    24492459.114    24492458.680
        38.000          15.0004
 125271554.205 7  97614214.83843  23838374.558    23838371.299    23838373.434
        44.000          23.0004
 13  1  1  0 55 30.0000000  0 10G11G20G01G14G30G31G22G32G25G23
 116773894.041 7  90992646.88645  22221321.023    22221317.953    22221319.652
        47.000          33.0004
 116950301.156 7  91130102.17545  22254890.873    22254888.678    22254888.658
        44.000          30.0004
 111018692.832 8  86508090.14746  21126143.160    21126143.997    21126141.956
        49.000          41.0004
 123263156.282 6  96049232.09243  23456185.902    23456184.488    23456183.565
        39.000          22.0004
 126666957.269 6  98701531.06142  24103916.234    24103915.338    24103914.323
        38.000          14.0004
 106538791.304 8  83017244.73447  20273654.135    20273651.454    20273653.520
        51.000          44.0004
 123910105.724 6  96553334.07543  23579303.973    23579300.445    23579302.168
        39.000          23.0004
 110961446.797 8  86463475.74446  21115249.431    21115247.316    21115247.863
        49.000          41.0004
 128675969.231 6 100266989.01142  24486218.512    24486219.179    24486217.162
        36.000          15.0004
 125159154.058 7  97526630.39844  23816985.234    23816982.550    23816983.968
        44.000          25.0004
 13  1  1  0 56  0.0000000  0 10G11G20G01G14G30G31G22G32G25G23
 116786842.750 7  91002736.79745  22223784.052    22223781.821    22223783.042
        47.000          33.0004
 116823832.741 7  91031555.41345  22230824.703    22230823.179    22230823.160
        44.000          30.0004
 110975563.699 7  86474483.04346  21117935.915    21117936.584    21117934.842
        47.000          41.0004
 123293036.659 6  96072515.51943  23461872.240    23461869.301    23461870.679
        40.000          22.0004
 126528541.518 6  98593674.67842  24077575.995    24077576.405    24077573.280
        37.000          14.0004
 106508371.819 8  82993541.26947  20267865.356    20267862.563    20267864.786
        51.000          44.0004
 123947590.278 6  96582542.78444  23586436.313    23586433.039    23586434.980
        40.000          24.0004
 110878753.793 8  86399039.64946  21099513.105    21099511.213    21099511.887
        50.000          40.0004
 128643690.490 5 100241836.79242  24480073.993    24480078.048    24480073.326
        34.000          15.0004
 125046865.690 7  97439133.07044  23795617.241    23795614.195    23795616.122
        44.000          26.0004
 13  1  1  0 56 30.0000000  0 10G11G20G01G14G30G31G22G32G25G23
 116800178.044 7  91013127.93445  22226321.897    22226319.425    22226320.854
        47.000          32.0004
 116697511.153 7  90933123.03345  22206786.814    22206784.068    22206785.157
        44.000          30.0004
 110933028.995 8  86441339.13146  21109841.457    21109842.586    21109840.688
        49.000          41.0004
 123322919.317 6  96095800.73143  23467557.923    23467554.932    23467556.796
        39.000          22.0004
 126390146.159 6  98485834.19842  24051240.469    24051239.430    24051238.611
        39.000          17.0004
 106478538.313 8  82970294.41147  20262188.082    20262185.255    20262187.591
        50.000          45.0004
 123985286.792 6  96611916.68344  23593610.987    23593606.174    23593608.662
        40.000          24.0004
 110796288.153 8  86334780.72446  21083820.586    21083818.558    21083818.894
        50.000          41.0004
 128611933.815 6 100217091.35842  24474031.786    24474033.884    24474030.645
        36.000          15.0004
 124934694.433 7  97351726.97144  23774271.343    23774268.110    23774270.854
        43.000          26.0004
 13  1  1  0 57  0.0000000  0 10G11G20G01G14G30G31G22G32G25G23
 116813891.994 7  91023814.13945  22228931.623    22228928.968    22228930.774
        47.000          33.0004
 116571333.099 7  90834802.52845  22182775.182    22182772.853    22182774.254
        45.000          30.0004
 110891083.414 8  86408654.27346  21101859.779    21101860.751    21101858.633
        49.000          41.0004
 123352798.393 6  96119083.15643  23473244.493    23473241.450    23473243.169
        40.000          22.0004
 126251768.644 6  98378007.58043  24024906.484    24024907.198    24024905.596
        38.000          18.0004
 106449284.278 8  82947499.08647  20256621.399    20256618.566    20256620.936
        52.000          44.0004
 124023189.452 6  96641451.18644  23600823.032    23600819.365    23600821.527
        40.000          24.0004
 110714046.019 8  86270695.95446  21068169.990    21068168.251    21068168.843
        50.000          41.0004
 128580694.042 6 100192748.68542  24468087.555    24468087.651    24468086.302
        36.000          14.0004
 124822634.766 7  97264407.84044  23752946.488    23752943.517    23752944.923
        42.000          26.0004
 13  1  1  0 57 30.0000000  0 10G11G20G01G14G30G31G22G32G25G23
 116827983.895 7  91034794.84945  22231613.112    22231611.306    22231612.378
        46.000          32.0004
 116445302.281 7  90736596.74145  22158793.119    22158790.439    22158791.625
        45.000          31.0004
 110849728.403 8  86376429.60046  21093990.457    21093991.038    21093989.062
        49.000          41.0004
 123382675.118 6  96142363.74343  23478928.885    23478927.320    23478928.182
        39.000          20.0004
 126113413.955 6  98270198.79843  23998579.134    23998579.606    23998578.030
        38.000          18.0004
 106420610.101 8  82925155.60047  20251164.874    20251161.822    20251164.380
        51.000          45.0004
 124061299.345 6  96671147.20143  23608074.888    23608071.682    23608073.081
        41.000          23.0004
 110632030.434 8  86206787.71746  21052563.532    21052561.202    21052561.865
        51.000          41.0004
 128549973.247 6 100168810.44542  24462240.852    24462242.339    24462240.939
        36.000          14.0004
 124710688.413 7  97177176.97244  23731644.037    23731641.029    23731642.599
        43.000          25.0004
 13  1  1  0 58  0.0000000  0 10G11G20G01G14G30G31G22G32G25G23
 116842448.633 7  91046066.08745  22234365.590    22234364.482    22234364.840
        46.000          33.0004
 116319417.297 7  90638504.58345  22134837.680    22134834.235    22134836.446
        46.000          32.0004
 110808960.931 8  86344662.74546  21086232.740    21086233.420    21086231.535
        48.000          41.0004
 123412546.195 6  96165639.87943  23484613.953    23484611.038    23484611.857
        39.000          20.0004
 125975082.424 6  98162408.04143  23972255.074    23972256.587    23972253.436
        38.000          19.0004
 106392512.158 8  82903261.11747  20245818.235    20245815.174    20245817.835
        50.000          44.0004
 124099613.107 6  96701002.06743  23615365.792    23615361.648    23615364.170
        40.000          23.0004
 110550240.038 8  86143054.94746  21036999.334    21036996.798    21036997.989
        49.000          41.0004
 128519768.836 5 100145274.59042  24456493.782    24456495.374    24456492.294
        34.000          12.0004
 124598852.562 7  97090032.24644  23710362.409    23710359.760    23710361.223
        42.000          25.0004
 13  1  1  0 58 30.0000000  0 10G11G20G01G14G30G31G22G32G25G23
 116857283.672 7  91057625.86245  22237188.650    22237186.492    22237187.545
        46.000          32.0004
 116193680.917 7  90540528.21645  22110910.699    22110908.030    22110909.068
        45.000          31.0004
 110768781.063 8  86313353.76746  21078586.622    21078587.429    21078585.387
        50.000          41.0004
 123442411.329 6  96188911.41443  23490297.845    23490294.470    23490296.423
        40.000          20.0004
 125836777.352 6  98054637.95043  23945937.518    23945936.022    23945936.423
        38.000          19.0004
 106364989.743 8  82881815.09547  20240580.961    20240577.942    20240580.204
        51.000          44.0004
 124138130.275 6  96731015.45143  23622694.954    23622691.306    23622692.952
        41.000          21.0004
 110468676.502 8  86079498.95646  21021478.170    21021475.924    21021476.903
        50.000          41.0004
 128490081.299 6 100122141.44142  24450844.480    24450845.405    24450844.237
        36.000          12.0004
 124487127.162 7  97002973.54544  23689102.329    23689098.767    23689101.013
        43.000          25.0004
 13  1  1  0 59  0.0000000  0 10G11G20G01G14G30G31G22G32G25G23
 116872492.760 7  91069477.09545  22240082.684    22240080.675    22240081.798
        46.000          33.0004
 116068101.050 7  90442673.82345  22087013.563    22087010.661    22087012.492
        45.000          31.0004
 110729194.718 8  86282507.27546  21071053.501    21071054.465    21071052.464
        50.000          41.0004
 123472276.133 6  96212182.74343  23495979.336    23495978.161    23495978.810
        39.000          20.0004
 125698508.121 6  97946895.75343  23919626.119    23919624.822    23919623.960
        38.000          18.0004
 106338047.449 8  82860821.12347  20235453.709    20235450.794    20235453.303
        51.000          44.0004
 124176856.444 6  96761191.69143  23630064.812    23630060.682    23630062.551
        40.000          20.0004
 110387347.379 8  86016125.63246  21006001.831    21005999.561    21006000.452
        52.000          41.0004
 128460916.909 5 100099415.95142  24445294.482    24445295.499    24445293.844
        35.000          13.0004
 124375518.202 7  96916005.60144  23667863.134    23667859.747    23667863.206
        42.000          24.0004
 13  1  1  0 59 30.0000000  0 10G11G20G01G14G30G31G22G32G25G23
 116888069.750 7  91081615.01545  22243047.080    22243044.389    22243046.435
        46.000          32.0004
 115942675.857 7  90344939.94445  22063146.300    22063143.143    22063144.739
        46.000          31.0004
 110690197.870 8  86252120.12446  21063632.547    21063633.250    21063631.460
        50.000          41.0004
 123502136.630 6  96235450.65243  23501662.450    23501659.333    23501661.920
        39.000          20.0004
 125560273.823 6  97839180.77243  23893320.000    23893320.853    23893318.226
        37.000          18.0004
 106311680.817 8  82840275.70947  20230436.673    20230433.434    20230436.120
        52.000          44.0004
 124215787.263 6  96791527.41643  23637474.104    23637469.539    23637472.070
        41.000          20.0004
 110306250.268 8  85952933.09646  20990569.214    20990567.137    20990567.940
        51.000          41.0004
 128432272.174 6 100077095.37842  24439844.536    24439844.961    24439843.006
        36.000          13.0004
 124264021.838 7  96829125.39744  23646646.358    23646642.482    23646645.268
        43.000          24.0004
 13  1  1  1  0  0.0000000  0 10G11G20G01G14G30G31G22G32G25G23
 116904012.423 7  91094037.88345  22246080.633    22246079.197    22246079.857
        46.000          32.0004
 115817407.724 7  90247328.46545  22039308.250    22039305.807    22039307.506
        46.000          32.0004
 110651790.746 8  86222192.50346  21056324.276    21056324.438    21056323.012
        50.000          41.0004
 123531993.025 6  96258715.36743  23507345.307    23507342.147    23507343.422
        41.000          20.0004
 125422078.579 6  97731496.25443  23867022.553    23867023.305    23867019.683
        38.000          18.0004
 106285888.771 8  82820178.02847  20225528.326    20225525.151    20225527.553
        51.000          44.0004
 124254922.757 6  96822022.61943  23644920.111    23644915.455    23644918.759
        40.000          21.0004
 110225387.195 8  85889922.92946  20975181.994    20975179.808    20975180.409
        50.000          41.0004
 128404147.794 6 100055180.31842  24434492.596    24434494.786    24434491.444
        37.000          14.0004
 124152638.528 7  96742333.27844  23625450.828    23625447.950    23625450.433
        43.000          24.0004
 13  1  1  1  0 30.0000000  0 10G11G20G01G14G30G31G22G32G25G23
 116920317.238 7  91106742.93245  22249183.338    22249181.028    22249181.936
        46.000          32.0004
 115692297.470 7  90149839.99045  22015501.002    22015497.402    22015499.521
        46.000          32.0004
 110613971.892 8  86192723.27546  21049127.160    21049128.055    21049126.034
        48.000          41.0004
 123561843.158 6  96281975.22543  23513023.197    23513022.055    23513021.382
        39.000          21.0004
 125283924.007 6  97623843.46743  23840732.333    23840733.081    23840730.418
        37.000          18.0004
 106260669.061 8  82800526.32447  20220729.101    20220725.959    20220728.556
        52.000          44.0004
 124294261.034 6  96852675.79543  23652406.575    23652402.652    23652405.190
        40.000          21.0004
 110144758.442 8  85827095.34446  20959838.528    20959836.399    20959836.881
        50.000          41.0004
 128376542.776 6 100033669.92342  24429238.377    24429239.684    24429238.497
        36.000          14.0004
 124041367.160 7  96655628.40444  23604276.632    23604272.311    23604275.625
        43.000          25.0004
 13  1  1  1  1  0.0000000  0 10G11G20G01G14G30G31G22G32G25G23
 118512404.555 7  92347330.46145  22552147.664    22552144.995    22552146.578
        47.000          32.0004
 117142775.250 7  91280082.45745  22291517.422    22291514.067    22291515.367
        45.000          32.0004
 112152165.709 8  87391315.86746  21341835.632    21341836.703    21341834.764
        48.000          41.0004
 125167109.242 6  97532831.92443  23818496.830    23818493.338    23818494.655
        40.000          21.0004
 126721241.614 6  98743831.28443  24114245.681    24114244.599    24114244.022
        39.000          18.0004
 107811444.951 8  84008923.13347  20515832.040    20515829.036    20515831.530
        50.000          44.0004
 125909223.652 6  98111088.24943  23959722.979    23959719.619    23959721.639
        40.000          20.0004
 111639791.545 8  86992056.23246  21244333.514    21244331.782    21244331.942
        50.000          41.0004
 129924881.566 6 101240167.69742  24723878.428    24723878.964    24723877.295
        36.000          16.0004
 125505634.705 7  97796616.16744  23882916.361    23882914.041    23882915.726
        42.000          25.0004
 13  1  1  1  1 30.0000000  0 10G11G20G01G14G30G31G22G32G25G23
 118529429.902 7  92360596.96945  22555387.778    22555385.135    22555387.081
        46.000          32.0004
 117017991.200 7  91182848.17945  22267771.290    22267768.835    22267769.457
        45.000          31.0004
 112115526.322 8  87362765.69946  21334863.295    21334864.185    21334862.224
        49.000          40.0004
 125196950.006 6  97556084.47543  23824175.274    23824172.134    23824174.320
        39.000          21.0004
 126583182.230 6  98636252.63743  24087972.622    24087973.411    24087969.628
        37.000          19.0004
 107787370.571 8  83990163.88847  20511250.665    20511247.809    20511250.032
        50.000          44.0004
 125948969.560 6  98142059.05343  23967286.506    23967283.168    23967285.287
        39.000          20.0004
 111559639.675 8  86929600.25446  21229080.921    21229079.219    21229079.514
        50.000          41.0004
 129898319.526 5 101219470.02342  24718823.446    24718823.920    24718822.761
        35.000          16.0004
 125394590.695 7  97710088.43744  23861786.372    23861782.804    23861785.156
        42.000          25.0004
 13  1  1  1  2  0.0000000  0 10G11G20G01G14G30G31G22G32G25G23
 118546810.252 7  92374140.11045  22558695.417    22558692.292    22558694.320
        47.000          32.0004
 116893371.594 7  91085742.04545  22244057.151    22244055.138    22244056.156
        46.000          32.0004
 112079474.885 8  87334673.68146  21328003.245    21328003.910    21328002.226
        49.000          41.0004
 125226784.499 6  97579332.12843  23829852.349    23829849.870    23829850.888
        39.000          21.0004
 126445174.058 6  98528713.88443  24061710.945    24061710.743    24061709.196
        38.000          19.0004
 107763865.823 8  83971848.52147  20506778.211    20506775.088    20506777.669
        51.000          45.0004
 125988917.298 6  98173187.12643  23974888.091    23974884.388    23974886.561
        38.000          20.0004
 111479727.231 8  86867330.83546  21213874.583    21213872.455    21213873.135
        49.000          41.0004
 129872277.848 6 101199177.84442  24713867.556    24713867.842    24713867.481
        36.000          16.0004
 125283658.947 7  97623648.18944  23840676.115    23840672.455    23840674.794
        43.000          24.0004
 13  1  1  1  2 30.0000000  0 10G11G20G01G14G30G31G22G32G25G23
 118564546.168 7  92387960.32445  22562070.125    22562067.605    22562069.529
        46.000          32.0004
 116768921.415 7  90988767.91145  22220374.964    22220373.140    22220373.532
        46.000          32.0004
 112044013.872 8  87307041.72546  21321255.220    21321255.930    21321254.000
        48.000          41.0004
 125256615.149 6  97602576.80443  23835528.485    23835526.109    23835527.581
        40.000          21.0004
 126307222.964 6  98421219.59143  24035459.520    24035459.146    24035457.106
        37.000          18.0004
 107740932.074 8  83953978.08747  20502413.970    20502410.796    20502413.538
        51.000          44.0004
 126029068.913 6  98204474.05043  23982528.801    23982525.485    23982527.434
        39.000          19.0004
 111400058.534 8  86805251.35346  21198713.760    21198712.008    21198712.254
        51.000          41.0004
 129846759.480 6 101179293.41142  24709012.559    24709012.937    24709011.429
        37.000          16.0004
 125172842.376 7  97537297.67444  23819589.234    23819585.603    23819588.284
        43.000          25.0004
 13  1  1  1  3  0.0000000  0 10G11G20G01G14G30G31G22G32G25G23
 118582633.214 7  92402054.12345  22565512.101    22565509.303    22565510.605
        46.000          32.0004
 116644640.942 7  90891926.03245  22196725.309    22196722.600    22196723.852
        46.000          32.0004
 112009141.033 8  87279868.08846  21314619.023    21314620.129    21314617.836
        49.000          41.0004
 125286439.641 6  97625816.67443  23841203.647    23841202.027    23841201.855
        38.000          21.0004
 126169330.414 5  98313770.96542  24009218.339    24009220.703    24009216.899
        35.000          17.0004
 107718566.158 8  83936550.11747  20498157.880    20498154.513    20498157.298
        51.000          44.0004
 126069421.768 6  98235917.80843  23990207.699    23990205.087    23990206.292
        39.000          19.0004
 111320633.172 8  86743361.48346  21183599.668    21183597.458    21183598.292
        51.000          41.0004
 129821762.663 6 101159815.39642  24704256.228    24704256.064    24704255.712
        36.000          16.0004
 125062138.884 7  97451035.27944  23798522.294    23798518.966    23798520.890
        42.000          25.0004
 13  1  1  1  3 30.0000000  0 10G11G20G01G14G30G31G22G32G25G23
 118601065.736 7  92416417.14845  22569019.332    22569017.028    22569019.278
        47.000          32.0004
 116520529.170 7  90795215.60045  22173107.521    22173105.108    22173106.264
        45.000          32.0004
 111974852.895 8  87253150.05946  21308094.104    21308095.077    21308093.045
        50.000          41.0004
 125316254.705 6  97649049.19543  23846877.140    23846875.898    23846876.215
        39.000          19.0004
 126031496.747 6  98206368.20942  23982989.399    23982989.824    23982989.311
        37.000          17.0004
 107696763.958 8  83919561.40147  20494009.100    20494005.598    20494008.675
        51.000          44.0004
 126109972.430 6  98267515.74243  23997924.078    23997920.401    23997923.402
        39.000          19.0004
 111241449.691 8  86681660.09146  21168531.302    21168529.464    21168530.163
        49.000          41.0004
 129797284.381 6 101140741.42042  24699597.688    24699598.539    24699595.892
        37.000          15.0004
 124951545.411 7  97364858.62844  23777476.636    23777474.548    23777475.235
        43.000          25.0004
 13  1  1  1  4  0.0000000  0 10G11G20G01G14G30G31G22G32G25G23
 118619842.819 7  92431048.64745  22572592.846    22572589.996    22572591.890
        46.000          31.0004
 116396589.837 7  90698639.53845  22149522.577    22149520.196    22149520.867
        45.000          32.0004
 111941150.694 8  87226888.61546  21301681.182    21301681.729    21301679.902
        50.000          41.0004
 125346061.566 6  97672275.33643  23852550.230    23852546.235    23852549.112
        40.000          19.0004
 125893726.697 6  98099014.97542  23956773.131    23956771.913    23956771.797
        37.000          13.0004
 107675525.852 8  83903012.24147  20489967.448    20489964.377    20489967.148
        51.000          45.0004
 126150721.993 6  98299268.66843  24005678.241    24005674.168    24005676.411
        39.000          20.0004
 111162511.178 8  86620149.57646  21153510.354    21153508.233    21153508.728
        51.000          41.0004
 129773326.354 6 101122072.83542  24695038.573    24695038.042    24695037.743
        39.000          15.0004
 124841063.503 7  97278768.88644  23756452.794    23756450.432    23756452.531
        42.000          24.0004
 13  1  1  1  4 30.0000000  0 10G11G20G01G14G30G31G22G32G25G23
 118638958.910 7  92445944.30045  22576230.646    22576227.662    22576229.886
        47.000          31.0004
 116272822.398 7  90602197.42045  22125970.726    22125968.274    22125968.984
        46.000          33.0004
 111908031.070 8  87201081.12546  21295378.368    21295379.472    21295377.270
        49.000          41.0004
 125375856.887 6  97695492.50343  23858219.469    23858216.840    23858218.969
        39.000          19.0004
 125756020.765 6  97991711.76942  23930568.796    23930568.728    23930566.674
        38.000          13.0004
 107654847.873 8  83886899.54747  20486032.654    20486029.295    20486032.231
        50.000          44.0004
 126191666.943 6  98331173.82243  24013470.446    24013468.044    24013468.277
        39.000          20.0004
 111083816.307 8  86558828.91546  21138535.146    21138533.005    21138533.629
        50.000          41.0004
 129749885.652 5 101103807.36742  24690576.500    24690578.064    24690576.892
        35.000          17.0004
 124730690.283 7  97192763.83244  23735450.053    23735446.494    23735449.307
        43.000          25.0004
 13  1  1  1  5  0.0000000  0 10G11G20G01G14G30G31G22G32G25G23
 118658416.419 7  92461106.00445  22579932.594    22579930.891    22579931.038
        46.000          32.0004
 116149233.050 7  90505894.07745  22102452.507    22102449.796    22102451.238
        46.000          33.0004
 111875497.995 8  87175730.67846  21289187.327    21289188.426    21289186.172
        50.000          41.0004
 125405645.000 6  97718703.99843  23863887.453    23863885.232    23863885.903
        39.000          19.0004
 125618386.557 6  97884464.43942  23904377.910    23904378.588    23904376.099
        37.000          14.0004
 107634732.790 8  83871225.47047  20482205.040    20482201.602    20482204.527
        52.000          44.0004
 126232810.991 6  98363234.09343  24021299.874    24021295.983    24021298.119
        39.000          20.0004
 111005371.059 8  86497702.76247  21123607.551    21123605.326    21123606.478
        50.000          42.0004
 129726966.868 6 101085948.61342  24686217.999    24686216.842    24686215.617
        38.000          16.0004
 124620430.092 7  97106846.86244  23714467.682    23714465.232    23714467.292
        43.000          25.0004
 13  1  1  1  5 30.0000000  0 10G11G20G01G14G30G31G22G32G25G23
 118678209.185 7  92476528.93345  22583700.032    22583696.858    22583698.835
        46.000          31.0004
 116025820.898 7  90409728.78545  22078967.978    22078964.795    22078966.246
        47.000          33.0004
 111843547.794 8  87150834.42346  21283107.697    21283108.434    21283106.755
        49.000          41.0004
 125435422.518 6  97741907.27443  23869554.495    23869551.016    23869553.103
        39.000          19.0004
 125480824.332 6  97777273.19242  23878199.523    23878198.563    23878197.771
        36.000          14.0004
 107615176.309 8  83855986.66947  20478483.340    20478480.287    20478482.832
        52.000          44.0004
 126274150.298 6  98395446.56243  24029166.678    24029162.756    24029164.538
        38.000          20.0004
 110927173.746 8  86436769.80746  21108727.206    21108725.032    21108725.674
        52.000          41.0004
 129704566.704 6 101068493.94642  24681954.430    24681954.711    24681953.262
        38.000          16.0004
 124510279.916 7  97021015.61144  23693506.935    23693503.059    23693505.667
        42.000          25.0004
 13  1  1  1  6  0.0000000  0 10G11G20G01G14G30G31G22G32G25G23
 118698333.876 7  92492210.52845  22587529.272    22587526.441    22587528.289
        46.000          32.0004
 115902586.826 7  90313702.28645  22055516.696    22055514.284    22055514.588
        45.000          33.0004
 111812179.072 8  87126391.26346  21277138.433    21277139.159    21277137.592
        50.000          41.0004
 125465188.155 6  97765101.31743  23875219.480    23875216.108    23875218.328
        41.000          19.0004
 125343336.476 5  97670139.86342  23852037.708    23852036.312    23852035.112
        35.000          14.0004
 107596175.922 8  83841181.19047  20474867.620    20474864.567    20474867.162
        50.000          44.0004
 126315683.455 6  98427810.03843  24037070.223    24037066.426    24037068.102
        36.000          19.0004
 110849225.024 8  86376030.55546  21093893.991    21093892.027    21093892.378
        51.000          41.0004
 129682684.232 5 101051442.71342  24677789.090    24677790.521    24677788.430
        35.000          17.0004
 124400238.617 7  96935269.20344  23672566.616    23672563.822    23672565.865
        42.000          26.0004
 13  1  1  1  6 30.0000000  0 10G11G20G01G14G30G31G22G32G25G23
 118718787.520 7  92508148.44345  22591421.457    22591419.236    22591420.406
        46.000          32.0004
 115779532.945 7  90217816.18945  22032099.943    22032098.156    22032098.808
        45.000          33.0004
 111781390.699 8  87102400.32646  21271279.569    21271280.398    21271278.504
        50.000          41.0004
 125494941.211 6  97788285.52143  23880881.370    23880878.703    23880879.001
        40.000          19.0004
 125205925.709 6  97563066.59242  23825889.444    23825888.169    23825887.354
        36.000          14.0004
 107577729.995 8  83826807.76147  20471357.551    20471354.306    20471356.978
        51.000          44.0004
 126357409.292 6  98460323.68543  24045010.275    24045006.981    24045007.826
        36.000          18.0004
 110771525.861 8  86315485.76946  21079108.272    21079106.237    21079106.683
        50.000          41.0004
 129661318.913 5 101034794.44942  24673723.484    24673724.603    24673722.802
        35.000          17.0004
 124290305.873 7  96849607.37144  23651646.886    23651643.860    23651645.533
        43.000          26.0004
 13  1  1  1  7  0.0000000  0 10G11G20G01G14G30G31G22G32G25G23
 118739564.037 7  92524337.94145  22595374.522    22595372.887    22595373.824
        46.000          32.0004
 115656657.722 7  90122069.30145  22008718.377    22008716.189    22008716.600
        46.000          34.0004
 111751178.928 8  87078858.68646  21265530.593    21265531.334    21265529.549
        50.000          41.0004
 125524678.072 6  97811457.08143  23886538.968    23886537.232    23886537.636
        40.000          21.0004
 125068592.070 6  97456053.41742  23799756.172    23799754.058    23799754.748
        36.000          15.0004
 107559833.522 8  83812862.47547  20467951.812    20467948.656    20467951.289
        51.000          44.0004
 126399323.709 6  98492984.24043  24052985.648    24052984.251    24052984.140
        37.000          18.0004
 110694074.584 8  86255134.13546  21064369.298    21064367.364    21064367.836
        50.000          41.0004
 129640467.390 6 101018546.52742  24669757.638    24669757.210    24669755.819
        36.000          15.0004
 124180478.275 7  96764027.47044  23630748.012    23630744.988    23630747.242
        42.000          26.0004
 13  1  1  1  7 30.0000000  0 10G11G20G01G14G30G31G22G32G25G23
 118760666.009 7  92540781.05545  22599390.283    22599387.989    22599389.450
        46.000          32.0004
 115533967.948 7  90026466.90345  21985370.967    21985368.597    21985369.726
        47.000          34.0004
 111721547.883 8  87055769.56546  21259891.630    21259892.853    21259890.753
        49.000          41.0004
 125554403.387 6  97834619.64843  23892195.195    23892191.386    23892193.953
        39.000          20.0004
 124931343.915 6  97349106.85742  23773639.509    23773635.930    23773637.372
        37.000          15.0004
 107542490.341 8  83799348.32547  20464651.603    20464648.350    20464651.149
        51.000          44.0004
 126441431.341 6  98525795.35943  24061000.482    24060995.973    24060998.670
        37.000          20.0004
 110616877.532 8  86194980.60946  21049679.417    21049677.392    21049678.023
        50.000          41.0004
 129620134.346 6 101002702.62242  24665888.135    24665887.941    24665886.354
        37.000          15.0004
 124070760.346 7  96678533.04044  23609869.090    23609865.614    23609868.995
        43.000          26.0004
 13  1  1  1  8  0.0000000  0 10G11G20G01G14G30G31G22G32G25G23
 118782087.366 7  92557473.03045  22603466.799    22603464.669    22603465.880
        46.000          32.0004
 115411463.235 7  89931008.72645  21962059.051    21962056.259    21962057.294
        47.000          33.0004
 111692493.898 8  87033130.09646  21254362.765    21254363.840    21254361.803
        50.000          41.0004
 125584113.922 6  97857770.77043  23897850.538    23897846.708    23897849.369
        41.000          20.0004
 124794180.968 5  97242226.73642  23747536.624    23747535.754    23747534.346
        35.000          16.0004
 107525695.630 8  83786261.56147  20461455.494    20461452.272    20461455.062
        49.000          44.0004
 126483727.945 6  98558753.74943  24069049.018    24069045.095    24069047.045
        37.000          21.0004
 110539933.143 8  86135023.94846  21035037.388    21035035.455    21035035.964
        50.000          41.0004
 129600316.563 6 100987260.23642  24662115.566    24662115.390    24662115.007
        36.000          15.0004
 123961148.793 7  96593121.50844  23589010.967    23589006.628    23589009.912
        44.000          27.0004
 13  1  1  1  8 30.0000000  0 10G11G20G01G14G30G31G22G32G25G23
 118803828.189 7  92574413.93645  22607603.698    22607601.758    22607602.878
        46.000          31.0004
 115289148.335 7  89835698.46445  21938783.394    21938780.614    21938781.788
        46.000          33.0004
 111664019.134 8  87010941.97246  21248944.330    21248945.291    21248943.268
        51.000          40.0004
 125613812.201 6  97880912.25943  23903501.193    23903498.495    23903500.035
        39.000          19.0004
 124657109.822 6  97135418.13542  23721453.370    23721452.375    23721451.554
        38.000          17.0004
 107509450.739 8  83773603.22247  20458364.193    20458360.924    20458363.700
        50.000          44.0004
 126526215.759 6  98591861.09643  24077132.424    24077130.055    24077131.290
        36.000          21.0004
 110463245.849 8  86075267.63046  21020444.093    21020442.340    21020442.470
        50.000          41.0004
 129581016.682 6 100972221.41442  24658443.997    24658442.368    24658442.482
        38.000          16.0004
 123851646.767 7  96507795.30644  23568172.433    23568170.161    23568172.098
        43.000          27.0004
 13  1  1  1  9  0.0000000  0 10G11G20G01G14G30G31G22G32G25G23
 118825880.413 7  92591597.47745  22611799.920    22611797.163    22611799.068
        46.000          31.0004
 115167019.551 7  89740533.21145  21915543.139    21915540.717    21915542.053
        46.000          34.0004
 111636117.133 8  86989200.14846  21243635.160    21243635.936    21243634.040
        48.000          41.0004
 125643491.793 6  97904039.19543  23909149.537    23909146.958    23909148.796
        39.000          19.0004
 124520127.749 6  97028678.94142  23695386.809    23695385.195    23695384.546
        37.000          17.0004
 107493748.511 8  83761367.73947  20455376.341    20455373.178    20455375.707
        50.000          45.0004
 126568888.096 6  98625112.24243  24085253.288    24085249.659    24085251.771
        38.000          21.0004
 110386811.311 8  86015708.26746  21005899.267    21005897.153    21005897.353
        50.000          41.0004
 129562228.837 5 100957581.53442  24654867.490    24654868.608    24654865.977
        35.000          16.0004
 123742248.539 7  96422549.98144  23547355.648    23547351.232    23547354.199
        44.000          28.0004
 13  1  1  1  9 30.0000000  0 10G11G20G01G14G30G31G22G32G25G23
 118848241.811 7  92609021.96545  22616055.059    22616052.799    22616054.201
        46.000          30.0004
 115045079.213 7  89645514.80345  21892338.678    21892335.238    21892337.619
        46.000          34.0004
 111608787.377 8  86967904.23446  21238434.242    21238435.081    21238433.162
        50.000          41.0004
 125673153.002 6  97927151.86243  23914792.296    23914790.231    23914792.394
        39.000          20.0004
 124383238.468 6  96922012.05343  23669336.333    23669336.270    23669334.369
        38.000          18.0004
 107478587.662 8  83749554.11447  20452491.076    20452488.103    20452490.750
        51.000          44.0004
 126611745.417 6  98658507.53543  24093409.377    24093405.363    24093406.796
        36.000          20.0004
 110310631.225 8  85956347.17246  20991402.593    20991400.597    20991401.176
        50.000          41.0004
 129543952.837 5 100943340.49742  24651389.872    24651390.188    24651389.167
        35.000          14.0004
 123632953.967 7  96337385.42444  23526557.979    23526554.419    23526556.695
        44.000          28.0004
 13  1  1  1 10  0.0000000  0 10G11G20G01G14G30G31G22G32G25G23
 118870910.594 7  92626685.95945  22620368.582    22620367.042    22620367.563
        45.000          30.0004
 114923330.350 7  89550645.59245  21869170.593    21869167.668    21869169.147
        46.000          34.0004
 111582030.077 8  86947054.38246  21233342.720    21233343.142    21233341.740
        50.000          41.0004
 125702796.909 6  97950251.02643  23920432.786    23920431.629    23920431.010
        37.000          18.0004
 124246446.256 6  96815420.80343  23643304.988    23643304.755    23643304.306
        39.000          18.0004
 107463967.551 8  83738161.83947  20449709.005    20449705.913    20449708.501
        51.000          44.0004
 126654786.996 6  98692046.41643  24101600.655    24101595.772    24101597.557
        36.000          20.0004
 110234708.263 8  85897186.43346  20976955.041    20976952.834    20976953.492
        51.000          41.0004
 129526189.554 5 100929499.02142  24648008.418    24648010.439    24648007.756
        35.000          14.0004
 123523763.915 7  96252302.31744  23505778.703    23505775.513    23505778.777
        43.000          28.0004
 13  1  1  1 10 30.0000000  0 10G11G20G01G14G30G31G22G32G25G23
 118893884.636 7  92644587.81244  22624739.990    22624738.525    22624739.307
        44.000          29.0004
 114801775.922 7  89455927.89145  21846039.579    21846036.279    21846038.124
        46.000          34.0004
 111555845.228 8  86926650.60846  21228359.702    21228360.490    21228358.888
        50.000          41.0004
 125732423.668 6  97973336.78943  23926072.847    23926070.228    23926071.670
        39.000          18.0004
 124109754.977 6  96708908.22943  23617295.036    23617294.023    23617293.246
        40.000          20.0004
 107449887.821 8  83727190.63747  20447029.449    20447026.485    20447028.936
        50.000          44.0004
 126698013.341 6  98725729.27343  24109824.294    24109821.750    24109823.918
        37.000          18.0004
 110159044.519 8  85838227.68346  20962556.390    20962554.759    20962555.031
        48.000          41.0004
 129508939.491 5 100916057.44942  24644727.184    24644728.370    24644725.440
        35.000          14.0004
 123414679.190 7  96167301.27644  23485020.968    23485018.292    23485019.285
        44.000          27.0004
 13  1  1  1 11  0.0000000  0 10G11G20G01G14G30G31G22G32G25G23
 118917160.062 7  92662724.51445  22629170.248    22629168.157    22629169.159
        46.000          30.0004
 114680416.750 7  89361362.33145  21822945.530    21822942.683    21822944.142
        47.000          34.0004
 111530230.654 7  86906691.20446  21223484.870    21223486.005    21223484.052
        47.000          41.0004
 125762031.742 6  97996408.01743  23931706.234    23931703.862    23931705.390
        40.000          18.0004
 123973166.873 6  96602476.03043  23591301.856    23591301.120    23591300.750
        40.000          21.0004
 107436344.889 8  83716637.71947  20444452.404    20444449.527    20444451.918
        50.000          44.0004
 126741422.516 6  98759554.56143  24118085.923    24118081.762    24118083.810
        37.000          18.0004
 110083640.179 8  85779471.07146  20948207.626    20948205.751    20948206.359
        51.000          41.0004
 129492200.867 6 100903014.39442  24641541.210    24641542.882    24641540.980
        36.000          14.0004
 123305698.235 7  96082381.12944  23464282.379    23464278.108    23464280.830
        44.000          27.0004
 13  1  1  1 11 30.0000000  0 10G11G20G01G14G30G31G22G32G25G23
 118940732.494 7  92681092.65745  22633655.850    22633653.153    22633654.933
        45.000          30.0004
 114559253.312 7  89266949.30045  21799888.990    21799886.104    21799887.195
        46.000          35.0004
 111505183.888 8  86887174.24446  21218719.091    21218720.013    21218718.051
        49.000          40.0004
 125791619.437 6  98019463.36043  23937335.423    23937333.349    23937335.295
        37.000          18.0004
 123836683.575 6  96496125.48643  23565330.482    23565329.758    23565329.456
        41.000          21.0004
 107423335.904 8  83706500.86747  20441976.501    20441973.905    20441976.152
        50.000          43.0004
 126785011.549 6  98793520.07642  24126379.929    24126375.710    24126377.690
        36.000          17.0004
 110008495.189 8  85720916.54646  20933908.260    20933906.001    20933906.790
        50.000          41.0004
 129475971.829 6 100890368.43942  24638453.534    24638454.762    24638452.820
        36.000          15.0004
 123196819.524 7  95997540.61944  23443563.306    23443560.071    23443562.842
        44.000          26.0004
 13  1  1  1 12  0.0000000  0 10G11G20G01G14G30G31G22G32G25G23
 118964600.396 7  92699691.00345  22638198.049    22638194.448    22638197.242
        46.000          31.0004
 114438288.570 7  89172691.11745  21776869.733    21776867.538    21776868.572
        47.000          35.0004
 111480704.704 8  86868099.54946  21214060.705    21214061.618    21214059.504
        49.000          40.0004
 125821187.195 6  98042503.13643  23942962.767    23942960.326    23942960.954
        37.000          19.0004
 123700308.865 6  96389859.54443  23539378.729    23539378.277    23539377.376
        41.000          23.0004
 107410859.961 8  83696779.37047  20439602.830    20439599.385    20439602.206
        51.000          44.0004
 126828780.784 6  98827625.97842  24134709.583    24134705.754    24134707.762
        37.000          17.0004
 109933611.621 8  85662565.72147  20919658.244    20919656.184    20919656.800
        50.000          42.0004
 129460252.626 6 100878119.70742  24635461.979    24635462.198    24635461.064
        36.000          15.0004
 123088043.506 7  95912780.11744  23422863.792    23422860.682    23422863.132
        44.000          26.0004
 13  1  1  1 12 30.0000000  0 10G11G20G01G14G30G31G22G32G25G23
 118988755.101 7  92718512.86645  22642794.693    22642791.228    22642793.750
        46.000          30.0004
 114317519.008 7  89078584.99945  21753888.409    21753886.018    21753886.975
        47.000          35.0004
 111456786.862 8  86849462.27246  21209509.381    21209510.112    21209508.232
        50.000          40.0004
 125850729.292 6  98065522.99142  23948584.921    23948581.583    23948583.647
        40.000          17.0004
 123564040.854 6  96283676.74343  23513447.228    23513447.412    23513446.695
        40.000          23.0004
 107398909.538 8  83687467.36847  20437328.750    20437325.407    20437328.313
        50.000          44.0004
 126872723.893 6  98861867.36242  24143071.977    24143067.978    24143069.241
        36.000          15.0004
 109858985.685 8  85604415.65346  20905457.457    20905455.177    20905455.937
        51.000          41.0004
 129445037.547 6 100866263.82242  24632568.524    24632567.576    24632566.606
        36.000          15.0004
 122979364.687 7  95828095.40344  23402182.509    23402179.574    23402182.346
        43.000          26.0004
 13  1  1  1 13  0.0000000  0 10G11G20G01G14G30G31G22G32G25G23
 119013194.373 7  92737556.47245  22647445.145    22647441.760    22647444.055
        46.000          31.0004
 114196947.162 7  88984632.94745  21730944.484    21730941.373    21730942.848
        46.000          35.0004
 111433429.554 8  86831261.76746  21205064.775    21205065.324    21205063.256
        48.000          40.0004
 125880245.559 6  98088522.72442  23954202.668    23954199.178    23954201.346
        39.000          17.0004
 123427882.936 6  96177579.72443  23487537.780    23487537.792    23487536.073
        41.000          23.0004
 107387483.427 8  83678563.92447  20435154.402    20435151.240    20435154.157
        50.000          43.0004
 126916840.524 6  98896243.93942  24151467.256    24151462.857    24151465.224
        36.000          15.0004
 109784618.943 8  85546467.55147  20891306.109    20891303.603    20891304.845
        50.000          42.0004
 129430326.308 6 100854800.51242  24629768.258    24629768.631    24629766.821
        36.000          14.0004
 122870783.177 7  95743486.48644  23381521.673    23381516.654    23381520.271
        44.000          26.0004
 13  1  1  1 13 30.0000000  0 10G11G20G01G14G30G31G22G32G25G23
 119037919.809 7  92756823.02945  22652150.036    22652147.006    22652148.612
        45.000          30.0004
 114076579.541 7  88890840.03745  21708038.830    21708036.330    21708037.060
        46.000          35.0004
 111410636.393 8  86813500.85946  21200727.259    21200728.097    21200726.038
        49.000          40.0004
 125909740.636 6  98111505.81643  23959814.646    23959811.718    23959813.285
        37.000          18.0004
 123291843.101 6  96071574.69943  23461650.941    23461650.621    23461649.128
        41.000          23.0004
 107376584.363 8  83670071.16247  20433080.410    20433077.211    20433079.907
        50.000          43.0004
 126961134.000 5  98930758.33342  24159894.789    24159890.932    24159893.386
        34.000          15.0004
 109710517.494 8  85488726.16746  20877205.005    20877202.625    20877203.420
        50.000          41.0004
 129416122.932 6 100843732.91942  24627064.552    24627064.948    24627064.056
        37.000          14.0004
 122762303.213 7  95658956.71044  23360877.842    23360874.563    23360876.332
        43.000          26.0004
 13  1  1  1 14  0.0000000  0 10G11G20G01G14G30G31G22G32G25G23
 119062924.403 7  92776307.13345  22656907.904    22656905.554    22656906.985
        45.000          30.0004
 113956413.647 8  88797204.31245  21685172.636    21685169.307    21685170.575
        48.000          35.0004
 111388401.850 8  86796175.24346  21196496.052    21196496.957    21196495.020
        50.000          40.0004
 125939209.292 6  98134468.40743  23965422.921    23965418.919    23965422.062
        40.000          18.0004
 123155919.930 6  95965660.58344  23435785.160    23435784.698    23435783.122
        41.000          24.0004
 107366206.308 8  83661984.38147  20431105.449    20431102.333    20431104.936
        51.000          43.0004
 127005598.700 5  98965406.13742  24168355.745    24168352.579    24168354.260
        34.000          15.0004
 109636678.328 8  85431189.17046  20863153.563    20863151.243    20863152.090
        50.000          41.0004
 129402422.593 5 100833057.32342  24624457.184    24624457.631    24624456.309
        35.000          14.0004
 122653920.251 7  95574502.51444  23340253.097    23340248.815    23340251.278
        44.000          27.0004
 13  1  1  1 14 30.0000000  0 10G11G20G01G14G30G31G22G32G25G23
 119088211.442 7  92796011.31145  22661720.694    22661717.907    22661719.479
        45.000          30.0004
 113836457.858 7  88703732.29645  21662345.609    21662342.411    21662344.092
        47.000          35.0004
 111366731.068 8  86779288.91446  21192372.214    21192373.170    21192371.349
        49.000          40.0004
 125968657.617 6  98157415.19643  23971025.128    23971022.705    23971023.604
        38.000          18.0004
 123020123.049 6  95859844.88044  23409944.437    23409942.791    23409942.367
        41.000          24.0004
 107356353.484 8  83654306.86447  20429230.774    20429227.302    20429230.217
        50.000          43.0004
 127050240.731 5  99000192.14542  24176850.701    24176848.474    24176849.618
        35.000          13.0004
 109563109.016 8  85373862.44646  20849153.695    20849151.645    20849152.252
        48.000          41.0004
 129389230.888 5 100822778.09742  24621945.949    24621947.417    24621945.042
        35.000          14.0004
 122545640.173 7  95490128.48944  23319648.785    23319645.192    23319647.793
        44.000          27.0004
 13  1  1  1 15  0.0000000  0 10G11G20G01G14G30G31G22G32G25G23
 119113775.093 7  92815931.04245  22666584.794    22666582.361    22666583.246
        44.000          31.0004
 113716711.390 7  88610423.39945  21639558.582    21639555.071    21639556.693
        47.000          35.0004
 111345619.822 8  86762838.59146  21188355.017    21188355.975    21188353.832
        49.000          40.0004
 125998082.370 6  98180343.53843  23976624.991    23976622.436    23976623.439
        38.000          18.0004
 122884452.561 6  95754127.69844  23384126.775    23384127.085    23384125.563
        41.000          24.0004
 107347020.972 8  83647034.79147  20427454.804    20427451.515    20427454.258
        50.000          44.0004
 127095055.775 6  99035112.95142  24185381.320    24185376.663    24185378.639
        36.000          16.0004
 109489807.845 8  85316744.65546  20835204.790    20835203.044    20835203.347
        50.000          41.0004
 129376544.134 6 100812892.32342  24619533.880    24619534.935    24619532.939
        37.000          14.0004
 122437459.798 7  95405832.16544  23299062.101    23299057.886    23299061.115
        45.000          28.0004
 13  1  1  1 15 30.0000000  0 10G11G20G01G14G30G31G22G32G25G23
 119139613.679 7  92836064.98545  22671501.576    22671499.752    22671500.801
        45.000          30.0004
 113597177.345 8  88517280.01446  21616811.891    21616808.660    21616810.898
        48.000          36.0004
 111325068.153 8  86746824.30346  21184444.475    21184444.886    21184443.085
        48.000          40.0004
 126027484.700 6  98203254.39442  23982220.584    23982218.036    23982218.482
        37.000          17.0004
 122748912.671 7  95648512.26744  23358334.779    23358332.641    23358333.476
        42.000          25.0004
 107338208.321 8  83640167.80547  20425777.761    20425774.395    20425777.237
        51.000          44.0004
 127140044.190 6  99070168.81542  24193940.269    24193938.039    24193939.407
        36.000          16.0004
 109416777.470 8  85259837.89246  20821307.312    20821305.692    20821306.054
        50.000          41.0004
 129364362.859 6 100803400.42142  24617213.563    24617214.539    24617213.069
        36.000          14.0004
 122329380.427 7  95321614.53644  23278495.286    23278490.399    23278493.851
        45.000          27.0004
 13  1  1  1 16  0.0000000  0 10G11G20G01G14G30G31G22G32G25G23
 119165720.241 7  92856407.75645  22676469.164    22676467.134    22676467.980
        44.000          30.0004
 113477853.829 7  88424300.68245  21594105.476    21594102.230    21594104.271
        47.000          35.0004
 111305070.860 8  86731242.01046  21180638.549    21180639.248    21180637.534
        49.000          40.0004
 126056859.987 6  98226144.21943  23987809.615    23987807.060    23987808.770
        39.000          18.0004
 122613503.080 6  95542998.33244  23332566.927    23332565.068    23332565.728
        41.000          25.0004
 107329909.484 8  83633701.19347  20424198.556    20424195.220    20424197.996
        51.000          44.0004
 127185200.865 5  99105355.82742  24202533.496    24202530.388    24202531.182
        35.000          15.0004
 109344015.283 8  85203140.09946  20807461.321    20807459.568    20807460.034
        49.000          41.0004
 129352682.437 5 100794298.80342  24614992.380    24614991.704    24614991.076
        34.000          14.0004
 122221397.499 7  95237472.05344  23257946.806    23257941.479    23257946.452
        44.000          27.0004
 13  1  1  1 16 30.0000000  0 10G11G20G01G14G30G31G22G32G25G23
 119192094.434 7  92876959.07944  22681488.607    22681486.070    22681487.590
        45.000          29.0004
 113358745.276 7  88331488.85545  21571439.358    21571436.288    21571437.879
        47.000          35.0004
 111285629.128 8  86716092.61046  21176939.008    21176939.947    21176937.942
        48.000          40.0004
 126086210.595 6  98249014.84143  23993395.574    23993392.025    23993394.747
        39.000          18.0004
 122478228.982 7  95437590.01344  23306825.762    23306824.058    23306823.614
        42.000          25.0004
 107322124.790 8  83627635.20947  20422717.163    20422713.883    20422716.657
        51.000          44.0004
 127230527.443 5  99140675.25742  24211158.901    24211155.806    24211156.834
        34.000          15.0004
 109271524.973 8  85146654.15246  20793667.108    20793664.974    20793665.589
        51.000          41.0004
 129341504.590 5 100785588.84242  24612865.484    24612865.460    24612863.846
        35.000          14.0004
 122113512.930 7  95153406.20444  23237416.768    23237412.807    23237416.304
        45.000          27.0004
 13  1  1  1 17  0.0000000  0 10G11G20G01G14G30G31G22G32G25G23
 119218736.533 7  92897719.15344  22686557.998    22686555.366    22686556.389
        45.000          29.0004
 113239856.734 8  88238848.46745  21548815.616    21548812.576    21548814.533
        48.000          35.0004
 111266744.735 8  86701377.50646  21173345.611    21173346.327    21173344.314
        49.000          40.0004
 126115539.125 6  98271868.25342  23998977.254    23998972.418    23998976.079
        38.000          16.0004
 122343096.701 7  95332292.18944  23281110.778    23281108.241    23281108.844
        42.000          25.0004
 107314855.435 8  83621970.79147  20421334.001    20421330.695    20421333.475
        50.000          44.0004
 127276025.894 6  99176128.58042  24219818.169    24219813.402    24219815.824
        37.000          14.0004
 109199310.971 8  85090383.52046  20779925.273    20779923.197    20779923.801
        49.000          41.0004
 129330831.605 5 100777272.23042  24610834.085    24610833.937    24610833.091
        35.000          14.0004
 122005729.789 7  95069419.40744  23216906.671    23216901.502    23216906.071
        45.000          27.0004
 13  1  1  1 17 30.0000000  0 10G11G20G01G14G30G31G22G32G25G23
 119245642.445 7  92918684.80444  22691677.887    22691674.650    22691677.261
        45.000          29.0004
 113121189.147 7  88146380.23646  21526234.105    21526231.238    21526232.466
        47.000          36.0004
 111248415.274 8  86687094.81246  21169857.363    21169858.755    21169856.441
        49.000          41.0004
 126144844.082 6  98294703.25342  24004553.416    24004551.285    24004552.231
        38.000          16.0004
 122208108.441 6  95227106.61144  23255422.378    23255420.081    23255421.689
        40.000          25.0004
 107308098.366 8  83616705.54947  20420048.008    20420044.872    20420047.616
        51.000          44.0004
 127321693.968 6  99211714.05442  24228507.447    24228504.208    24228506.179
        38.000          14.0004
 109127373.541 8  85034328.39447  20766236.120    20766233.964    20766234.764
        51.000          42.0004
 129320661.665 6 100769347.61142  24608900.144    24608898.466    24608899.015
        36.000          13.0004
 121898046.796 7  94985510.62344  23196415.334    23196411.115    23196413.654
        44.000          28.0004
 13  1  1  1 18  0.0000000  0 11G11G20G01G14G30G31G22G32G25G16G23
 119272808.955 7  92939853.50744  22696847.786    22696844.905    22696846.976
        44.000          29.0004
 113002744.236 8  88054085.52846  21503694.701    21503691.989    21503693.395
        48.000          36.0004
 111230639.129 8  86673243.27046  21166475.372    21166475.910    21166474.311
        50.000          41.0004
 126174124.908 6  98317519.46743  24010125.439    24010123.082    24010122.887
        37.000          18.0004
 122073267.109 6  95122035.49743  23229762.818    23229761.936    23229761.599
        40.000          22.0004
 107301851.422 8  83611837.80647  20418859.139    20418855.961    20418858.564
        50.000          43.0004
 127367530.472 6  99247430.77942  24237230.812    24237226.052    24237228.559
        39.000          16.0004
 109055713.676 8  84978489.55046  20752599.262    20752597.246    20752597.708
        50.000          41.0004
 129310993.661 6 100761814.14342  24607059.959    24607059.115    24607059.072
        37.000          13.0004
 130994881.949 6 102073940.64041  24927498.292    24927497.063    24927494.900
        37.000          10.0004
 121790463.134 7  94901679.26944  23175941.348    23175938.585    23175940.362
        44.000          27.0004
 13  1  1  1 18 30.0000000  0 11G11G20G01G14G30G31G22G32G25G16G23
 119300232.623 7  92961222.60644  22702066.213    22702064.373    22702064.845
        45.000          29.0004
 112884523.392 7  87961965.40746  21481197.822    21481195.353    21481196.404
        47.000          36.0004
 111213414.236 8  86659821.28446  21163197.546    21163198.480    21163196.461
        49.000          41.0004
 126203380.927 6  98340316.40443  24015690.973    24015686.776    24015689.297
        36.000          18.0004
 121938575.007 6  95017080.69543  23204131.559    23204131.217    23204130.865
        39.000          22.0004
 107296111.574 8  83607365.21147  20417767.225    20417763.993    20417766.554
        50.000          43.0004
 127413533.879 6  99283277.58542  24245983.854    24245980.222    24245982.937
        38.000          16.0004
 108984331.978 8  84922867.46346  20739015.944    20739013.992    20739014.673
        51.000          41.0004
 129301826.119 5 100754670.59142  24605313.949    24605314.576    24605313.054
        35.000          14.0004
 130854689.686 6 101964700.02242  24900819.566    24900818.648    24900818.161
        37.000          12.0004
 121682978.197 7  94817924.83644  23155488.665    23155484.643    23155486.959
        45.000          27.0004
 13  1  1  1 19  0.0000000  0 11G11G20G01G14G30G31G22G32G25G16G23
 120903330.382 7  94210389.67644  23007125.893    23007123.493    23007125.430
        44.000          28.0004
 114341953.476 8  89097625.23146  21758537.782    21758535.299    21758536.272
        48.000          36.0004
 112772160.582 8  87874428.82946  21459816.947    21459817.661    21459815.833
        48.000          40.0004
 127808031.274 6  99590693.29842  24321046.128    24321044.903    24321044.754
        36.000          15.0004
 123379460.781 6  96139848.92843  23478322.865    23478322.215    23478321.208
        39.000          20.0004
 108866297.889 8  84830887.02547  20716563.277    20716560.406    20716563.063
        49.000          43.0004
 129035122.313 6 100546852.98942  24554562.918    24554558.650    24554560.803
        38.000          17.0004
 110488653.081 8  86095065.73546  21025278.889    21025277.043    21025277.465
        50.000          41.0004
 130868579.195 5 101975517.16542  24903458.525    24903458.641    24903456.547
        35.000          14.0004
 132289768.836 6 103082943.53842  25173906.910    25173904.245    25173904.753
        37.000          12.0004
 123151015.643 7  95961850.17144  23434847.085    23434843.100    23434845.196
        45.000          28.0004
 13  1  1  1 19 30.0000000  0 11G11G20G01G14G30G31G22G32G25G16G23
 120931262.834 7  94232155.24244  23012441.560    23012439.087    23012439.973
        44.000          29.0004
 114224190.708 7  89005862.05446  21736128.245    21736125.027    21736126.839
        47.000          36.0004
 112756037.759 8  87861865.59646  21456748.757    21456749.504    21456747.683
        49.000          40.0004
 127837239.894 6  99613453.22642  24326606.468    24326601.774    24326605.056
        38.000          16.0004
 123245080.882 6  96035137.36343  23452750.679    23452750.078    23452749.913
        39.000          19.0004
 108861570.240 8  84827203.15447  20715663.751    20715660.526    20715663.186
        50.000          43.0004
 129081459.670 6 100582960.01342  24563379.520    24563375.615    24563377.860
        36.000          17.0004
 110417835.600 8  86039883.29147  21011802.649    21011800.980    21011801.369
        50.000          42.0004
 130860413.640 6 101969154.42942  24901903.825    24901903.129    24901903.097
        36.000          12.0004
 132149274.551 5 102973467.58042  25147170.508    25147169.203    25147167.802
        35.000          12.0004
 123043730.457 7  95878251.38644  23414430.979    23414427.767    23414429.461
        45.000          28.0004
 13  1  1  1 20  0.0000000  0 11G11G20G01G14G30G31G22G32G25G16G23
 120959443.299 7  94254114.04444  23017802.917    23017802.348    23017802.672
        44.000          29.0004
 114106657.705 8  88914277.92046  21713762.334    21713759.603    21713761.020
        48.000          36.0004
 112740461.644 8  87849728.36246  21453784.902    21453785.291    21453783.917
        50.000          40.0004
 127866422.538 6  99636192.97842  24332157.638    24332154.908    24332158.988
        37.000          16.0004
 123110859.504 6  95930549.33343  23427209.877    23427207.676    23427209.557
        41.000          19.0004
 108857343.200 8  84823909.37247  20714859.311    20714856.077    20714858.746
        50.000          43.0004
 129127960.124 6 100619194.11042  24572227.656    24572224.964    24572226.758
        36.000          17.0004
 110347300.032 8  85984920.52846  20998380.049    20998378.190    20998378.680
        50.000          41.0004
 130852745.651 6 101963179.37042  24900444.740    24900443.645    24900443.917
        36.000          12.0004
 132008631.098 5 102863875.43342  25120406.388    25120404.732    25120405.207
        34.000          12.0004
 122936542.464 7  95794728.31944  23394033.387    23394029.850    23394032.848
        45.000          28.0004
 13  1  1  1 20 30.0000000  0 11G11G20G01G14G30G31G22G32G25G16G23
 120987871.140 7  94276265.58544  23023213.451    23023210.874    23023212.303
        46.000          28.0004
 113989358.753 8  88822876.16446  21691441.016    21691438.332    21691439.531
        48.000          36.0004
 112725432.983 8  87838017.72346  21450925.270    21450925.578    21450924.095
        49.000          40.0004
 127895581.004 5  99658913.85842  24337707.125    24337704.200    24337705.068
        34.000          15.0004
 122976802.140 6  95826089.09343  23401698.747    23401697.649    23401696.779
        39.000          19.0004
 108853617.074 8  84821005.91047  20714150.304    20714146.943    20714149.858
        50.000          43.0004
 129174625.195 5 100655556.52942  24581108.450    24581105.020    24581106.892
        34.000          12.0004
 110277049.843 8  85930180.12946  20985012.057    20985009.956    20985010.620
        50.000          41.0004
 130845576.452 6 101957593.00142  24899081.001    24899081.120    24899078.832
        36.000          14.0004
 131867843.208 5 102754170.71941  25093616.394    25093614.202    25093614.002
        34.000          10.0004
 122829453.815 7  95711282.67444  23373655.198    23373651.906    23373654.160
        45.000          29.0004
 13  1  1  1 21  0.0000000  0 11G11G20G01G14G30G31G22G32G25G16G23
 121016542.544 7  94298606.94544  23028668.813    23028666.501    23028668.507
        45.000          29.0004
 113872295.100 7  88731657.75046  21669164.343    21669161.929    21669162.616
        47.000          36.0004
 112710949.671 8  87826732.03146  21448168.705    21448168.936    21448167.854
        48.000          40.0004
 127924713.976 6  99681614.87442  24343249.862    24343248.578    24343248.705
        38.000          15.0004
 122842911.408 6  95721758.65443  23376219.441    23376219.425    23376218.127
        38.000          19.0004
 108850389.065 8  84818490.58947  20713535.889    20713532.737    20713535.352
        51.000          43.0004
 129221453.279 5 100692045.95142  24590019.701    24590015.410    24590019.145
        34.000          12.0004
 110207085.805 8  85875662.70347  20971698.364    20971696.096    20971697.032
        49.000          42.0004
 130838904.572 5 101952394.14542  24897811.198    24897812.134    24897809.509
        34.000          14.0004
 131726912.885 5 102644355.03141  25066796.922    25066797.379    25066795.898
        33.000          10.0004
 122722463.692 7  95627913.78944  23353296.078    23353292.072    23353294.927
        46.000          29.0004
 13  1  1  1 21 30.0000000  0 11G11G20G01G14G30G31G22G32G25G16G23
 121045455.465 7  94321136.48644  23034171.448    23034169.279    23034170.981
        44.000          29.0004
 113755470.111 7  88640625.32346  21646933.215    21646930.532    21646931.604
        47.000          36.0004
 112697011.139 8  87815870.83646  21445516.480    21445517.238    21445515.193
        49.000          40.0004
 127953822.622 6  99704296.89342  24348789.738    24348789.188    24348787.485
        37.000          17.0004
 122709191.387 6  95617561.26442  23350774.985    23350773.510    23350773.238
        40.000          16.0004
 108847658.045 8  84816362.54047  20713016.447    20713013.149    20713015.864
        50.000          43.0004
 129268443.846 5 100728661.99941  24598962.560    24598958.117    24598959.190
        33.000           7.0004
 110137410.076 8  85821369.92947  20958439.742    20958437.354    20958438.358
        50.000          42.0004
 130832729.877 5 101947582.72942  24896637.232    24896635.934    24896634.383
        35.000          13.0004
 131585843.552 5 102534431.04341  25039953.016    25039951.540    25039952.724
        35.000           6.0004
 122615572.566 7  95544622.03844  23332955.004    23332951.643    23332953.979
        45.000          29.0004
 13  1  1  1 22  0.0000000  0 11G11G20G01G14G30G31G22G32G25G16G23
 121074608.184 7  94343852.87444  23039718.530    23039716.572    23039717.311
        44.000          29.0004
 113638886.552 7  88549781.00846  21624748.257    21624745.130    21624746.380
        47.000          36.0004
 112683616.768 8  87805433.66546  21442967.289    21442968.086    21442966.376
        49.000          40.0004
 127982907.303 6  99726960.28542  24354325.408    24354322.481    24354324.370
        39.000          17.0004
 122575646.232 6  95513500.12042  23325360.490    23325361.603    23325360.052
        37.000          16.0004
 108845422.668 8  84814620.69747  20712590.930    20712587.774    20712590.280
        51.000          43.0004
 129315596.746 5 100765404.54741  24607932.583    24607928.473    24607931.611
        32.000           7.0004
 110068024.901 8  85767303.56347  20945236.062    20945234.009    20945234.562
        50.000          42.0004
 130827052.439 5 101943158.76442  24895555.584    24895556.470    24895554.447
        35.000          14.0004
 131444638.709 5 102424401.43641  25013081.676    25013080.558    25013080.075
        35.000           6.0004
 122508780.933 7  95461407.81844  23312633.477    23312629.680    23312631.535
        45.000          29.0004
 13  1  1  1 22 30.0000000  0 11G11G20G01G14G30G31G22G32G25G16G23
 121103998.113 7  94366754.10244  23045311.619    23045309.185    23045309.874
        44.000          28.0004
 113522547.112 8  88459126.91846  21602609.611    21602606.804    21602608.389
        49.000          37.0004
 112670765.573 8  87795419.76046  21440521.993    21440522.621    21440520.832
        48.000          40.0004
 128011968.449 6  99749605.37042  24359855.645    24359852.353    24359854.379
        39.000          17.0004
 122442279.658 6  95409578.13242  23299983.445    23299981.177    23299980.718
        39.000          17.0004
 108843681.541 8  84813263.99447  20712259.392    20712256.326    20712259.005
        50.000          43.0004
 129362911.680 5                  24616938.094
        31.000
 109998932.261 8  85713465.14647  20932088.207    20932085.829    20932086.557
        50.000          42.0004
 130821871.736 5 101939121.86242  24894570.194    24894570.669    24894569.186
        35.000          14.0004
 131303301.672 5 102314268.80141  24986187.513    24986185.223    24986185.121
        35.000           7.0004
 122402089.029 7  95378271.31545  23292330.433    23292326.805    23292329.515
        46.000          30.0004
 13  1  1  1 23  0.0000000  0 11G11G20G01G14G30G31G22G32G25G16G23
 121133621.637 7  94389837.35844  23050948.578    23050946.041    23050947.958
        44.000          28.0004
 113406453.435 8  88368664.33546  21580518.131    21580514.933    21580516.400
        48.000          37.0004
 112658455.236 8  87785827.29146  21438179.083    21438180.223    21438177.807
        48.000          40.0004
 128041005.173 6  99772231.38042  24365380.615    24365377.900    24365380.615
        38.000          17.0004
 122309094.112 6  95305797.24142  23274638.260    23274638.353    23274636.832
        37.000          17.0004
 108842431.607 8  84812290.03247  20712021.125    20712018.184    20712020.790
        49.000          43.0004
 129410386.462 5                  24625970.847
        32.000
 109930132.634 8  85659855.05247  20918996.060    20918994.055    20918994.398
        50.000          42.0004
 130817186.065 5 101935470.67242  24893678.536    24893677.192    24893676.008
        34.000          13.0004
 131161834.290 5 102204034.61441  24959266.752    24959265.152    24959265.657
        35.000           7.0004
 122295496.002 7  95295211.85445  23272046.604    23272041.719    23272045.420
        46.000          30.0004
 13  1  1  1 23 30.0000000  0 11G11G20G01G14G30G31G22G32G25G16G23
 121163480.244 7  94413103.80144  23056630.296    23056627.813    23056630.576
        45.000          28.0004
 113290611.240 7  88278397.71346  21558473.436    21558471.051    21558472.207
        47.000          37.0004
 112646688.478 8  87776658.38346  21435940.564    21435941.193    21435939.145
        49.000          40.0004
 128070021.518 6  99794841.48842  24370902.022    24370898.542    24370901.442
        38.000          16.0004
 122176097.080 6  95202163.23842  23249330.382    23249329.372    23249328.282
        38.000          17.0004
 108841675.009 8  84811700.48847  20711877.467    20711874.356    20711876.964
        50.000          43.0004
 129458024.627 5                  24635037.956
        33.000
 109861631.649 8  85606477.67147  20905960.776    20905958.666    20905959.237
        50.000          42.0004
 130812998.709 5 101932207.80542  24892881.736    24892880.030    24892879.552
        35.000          13.0004
 131020243.768 5 102093704.49241  24932322.996    24932321.172    24932319.800
        34.000           6.0004
 122189006.035 7  95212232.68245  23251781.836    23251778.717    23251780.767
        45.000          30.0004
 13  1  1  1 24  0.0000000  0 11G11G20G01G14G30G31G22G32G25G16G23
 121193572.878 7  94436552.59044  23062356.852    23062354.890    23062356.208
        43.000          28.0004
 113175024.927 7  88188330.48346  21536477.972    21536475.770    21536476.805
        47.000          37.0004
 112635465.668 8  87767913.33846  21433804.660    21433805.417    21433803.802
        48.000          40.0004
 128099019.135 6  99817437.07742  24376419.162    24376416.458    24376418.159
        36.000          15.0004
 122043293.848 6  95098680.24843  23224058.251    23224057.648    23224056.789
        38.000          18.0004
 108841411.637 8  84811495.27247  20711827.768    20711824.206    20711827.042
        51.000          43.0004
 129505826.972 5                  24644135.681
        31.000
 109793432.650 8  85553335.59946  20892982.852    20892980.466    20892981.432
        48.000          41.0004
 130809310.476 5 101929333.84942  24892178.974    24892179.063    24892178.122
        35.000          12.0004
 130878534.759 6 101983281.99641  24905355.809    24905354.277    24905354.581
        38.000           6.0004
 122082620.486 7  95129334.88644  23231537.789    23231533.374    23231536.889
        46.000          29.0004
 13  1  1  1 24 30.0000000  0 11G11G20G01G14G30G31G22G32G25G16G23
 121223895.906 7  94460180.92244  23068127.632    23068125.374    23068126.973
        44.000          27.0004
 113059695.770 8  88098463.63246  21514532.159    21514529.163    21514530.780
        49.000          37.0004
 112624784.424 8  87759590.29246  21431772.144    21431772.927    21431770.877
        49.000          40.0004
 128127997.156 6  99840017.40942  24381933.995    24381933.394    24381932.805
        37.000          15.0004
 121910687.043 6  94995350.31243  23198825.672    23198823.955    23198822.667
        39.000          18.0004
 108841638.500 8  84811672.06247  20711871.101    20711867.462    20711870.238
        50.000          43.0004
 129553791.632 5                  24653262.358
        31.000
 109725536.113 8  85500429.21347  20880062.574    20880060.187    20880061.113
        51.000          42.0004
 130806119.881 5 101926847.70942  24891572.197    24891572.395    24891571.492
        34.000          12.0004
 130736708.968 6 101872768.47141  24878367.892    24878365.645    24878366.153
        37.000          10.0004
 121976338.599 7  95046517.83544  23211313.466    23211308.582    23211312.311
        47.000          29.0004
 13  1  1  1 25  0.0000000  0 11G11G20G01G14G30G31G22G32G25G16G23
 121254446.586 7  94483986.64044  23073941.213    23073937.977    23073940.041
        45.000          28.0004
 112944626.391 8  88008799.20246  21492635.293    21492632.234    21492633.728
        48.000          38.0004
 112614643.681 7  87751688.40746  21429842.072    21429842.848    21429841.079
        47.000          39.0004
 128156955.936 5  99862582.61142  24387445.962    24387442.871    24387443.216
        35.000          14.0004
 121778280.134 6  94892176.11343  23173628.007    23173626.746    23173625.829
        39.000          20.0004
 108842354.031 8  84812229.63147  20712006.816    20712003.705    20712006.648
        50.000          43.0004
 129601918.095 5                  24662422.281
        31.000
 109657944.115 8  85447760.12647  20867200.130    20867197.894    20867198.754
        48.000          42.0004
 130803426.069 5 101924748.64842  24891058.495    24891060.488    24891057.299
        33.000          12.0004
 130594769.386 6 101762166.28441  24851356.772    24851356.004    24851355.576
        37.000          10.0004
 121870160.605 7  94963781.75144  23191107.724    23191103.577    23191106.483
        46.000          29.0004
 13  1  1  1 25 30.0000000  0 11G11G20G01G14G30G31G22G32G25G16G23
 121285221.662 7  94507967.20044  23079797.495    23079795.091    23079796.021
        44.000          28.0004
 112829818.578 8  87919338.60046  21470788.194    21470785.056    21470786.741
        48.000          38.0004
 112605041.124 8  87744205.90146  21428014.649    21428015.283    21428013.788
        49.000          39.0004
 128185894.524 6  99885132.14242  24392951.008    24392949.564    24392950.909
        37.000          14.0004
 121646075.905 6  94789159.86743  23148470.099    23148468.638    23148468.729
        39.000          21.0004
 108843555.094 8  84813165.54147  20712235.550    20712232.159    20712235.151
        50.000          43.0004
 129650204.637 5                  24671610.369
        31.000
 109590657.208 8  85395328.77247  20854395.840    20854393.789    20854394.688
        48.000          42.0004
 130801227.477 5 101923035.50742  24890640.868    24890640.736    24890639.564
        34.000          12.0004
 130452718.206 6 101651477.19041  24824324.203    24824325.058    24824324.666
        37.000           8.0004
 121764085.692 7  94881126.00844  23170922.008    23170917.367    23170921.586
        45.000          29.0004
 13  1  1  1 26  0.0000000  0 10G11G20G01G14G30G31G32G25G16G23
 121316222.922 7  94532124.03944  23085697.312    23085693.804    23085696.326
        46.000          27.0004
 112715278.772 7  87830086.82646  21448991.503    21448988.502    21448990.115
        47.000          37.0004
 112595979.724 8  87737145.07246  21426290.310    21426291.256    21426289.210
        48.000          39.0004
 128214817.540 6  99907669.55842  24398455.379    24398450.629    24398453.920
        36.000          14.0004
 121514082.188 6  94686307.63543  23123353.351    23123350.947    23123351.099
        40.000          21.0004
 108845244.381 8  84814481.87347  20712557.078    20712553.500    20712556.550
        51.000          42.0004
 109523681.370 8  85343139.81047  20841650.962    20841648.793    20841649.444
        50.000          42.0004
 130799527.626 5 101921710.98942  24890317.907    24890317.775    24890315.448
        34.000          12.0004
 130310563.197 6 101540707.16441  24797274.758    24797273.697    24797272.895
        37.000           8.0004
 121658118.019 7  94798553.83144  23150757.748    23150753.401    23150756.372
        45.000          29.0004
 13  1  1  1 26 30.0000000  0 10G11G20G01G14G30G31G32G25G16G23
 121347445.843 7  94556453.58744  23091638.645    23091635.803    23091637.963
        44.000          28.0004
 112601007.592 8  87741044.36646  21427246.509    21427243.408    21427245.078
        48.000          37.0004
 112587456.204 8  87730503.36746  21424668.200    21424669.276    21424667.117
        48.000          39.0004
 128243723.202 6  99930193.49842  24403956.218    24403953.922    24403954.283
        36.000          14.0004
 121382300.699 6  94583620.79243  23098276.624    23098274.725    23098273.863
        41.000          22.0004
 108847418.155 8  84816175.73547  20712970.884    20712967.149    20712970.152
        50.000          43.0004
 109457016.343 8  85291193.04547  20828964.967    20828962.669    20828963.531
        50.000          42.0004
 130798323.805 5 101920772.96642  24890088.288    24890087.904    24890087.439
        35.000          12.0004
 130168305.388 6 101429857.04141  24770204.547    24770201.168    24770202.586
        37.000           9.0004
 121552255.965 7  94716063.96344  23130612.749    23130608.462    23130611.563
        44.000          29.0004
 13  1  1  1 27  0.0000000  0 10G11G20G01G14G30G31G32G25G16G23
 121378886.565 7  94580952.81644  23097621.145    23097618.664    23097620.238
        44.000          28.0004
 112487006.364 7  87652212.27246  21405552.301    21405549.636    21405551.207
        47.000          38.0004
 112579467.999 8  87724278.79046  21423148.472    21423148.985    21423147.303
        48.000          39.0004
 128272610.604 6  99952703.15442  24409455.116    24409451.225    24409452.398
        38.000          13.0004
 121250733.581 6  94481101.01543  23073238.668    23073237.681    23073238.196
        39.000          23.0004
 108850073.514 8  84818244.85247  20713475.960    20713472.295    20713475.457
        51.000          42.0004
 109390662.734 8  85239488.93147  20816338.179    20816335.856    20816336.688
        49.000          42.0004
 130797614.025 5 101920219.91342  24889954.095    24889952.726    24889952.290
        35.000          13.0004
 130025946.718 6 101318928.25441  24743112.946    24743111.542    24743111.508
        36.000           9.0004
 121446498.267 7  94633655.40745  23110487.501    23110483.386    23110486.758
        45.000          30.0004
 13  1  1  1 27 30.0000000  0 10G11G20G01G14G30G31G32G25G16G23
 121410543.980 7  94605620.92444  23103645.516    23103643.880    23103643.724
        44.000          27.0004
 112373278.987 8  87563593.55346  21383911.272    21383908.036    21383909.490
        49.000          38.0004
 112572015.253 8  87718471.45646  21421730.032    21421731.050    21421729.099
        48.000          40.0004
 128301481.437 6  99975199.90042  24414948.740    24414945.298    24414946.777
        39.000          13.0004
 121119386.392 6  94378752.59143  23048244.134    23048243.042    23048242.573
        40.000          23.0004
 108853209.419 8  84820688.42647  20714072.585    20714069.161    20714072.295
        50.000          42.0004
 109324623.602 8  85188029.86847  20803771.355    20803769.176    20803769.947
        50.000          42.0004
 130797398.983 6 101920052.34342  24889911.728    24889912.323    24889911.332
        36.000          13.0004
 129883491.996 5 101207924.62542  24716003.457    24716003.960    24716002.858
        34.000          12.0004
 121340846.822 7  94551329.67245  23090382.645    23090378.560    23090381.760
        46.000          30.0004
 13  1  1  1 28  0.0000000  0 10G11G20G01G14G30G31G32G25G16G23
 121442414.713 7  94630455.26444  23109709.762    23109707.549    23109709.409
        43.000          27.0004
 112259827.181 8  87475189.58846  21362321.298    21362319.109    21362319.926
        48.000          38.0004
 112565095.556 8  87713079.48646  21420413.413    21420414.521    21420412.131
        48.000          40.0004
 128330335.297 6  99997683.41843  24420437.435    24420437.034    24420437.257
        38.000          18.0004
 120988261.346 6  94276577.27543  23023291.493    23023290.470    23023291.065
        39.000          23.0004
 108856823.251 8  84823504.41247  20714760.439    20714756.903    20714760.074
        51.000          43.0004
 109258899.711 8  85136816.45147  20791264.356    20791262.461    20791263.028
        50.000          42.0004
 130797676.824 5 101920268.84242  24889965.365    24889963.969    24889963.570
        34.000          12.0004
 129740942.794 6 101096847.38042  24688879.368    24688877.180    24688877.267
        36.000          12.0004
 121235300.622 7  94469085.91445  23070298.028    23070293.161    23070296.942
        46.000          30.0004
 13  1  1  1 28 30.0000000  0 10G11G20G01G14G30G31G32G25G16G23
 121474497.570 7  94655454.90244  23115815.366    23115812.624    23115814.556
        44.000          27.0004
 112146654.543 8  87387003.14246  21340785.755    21340782.853    21340784.306
        48.000          38.0004
 112558708.845 8  87708102.82546  21419198.367    21419199.353    21419197.400
        49.000          39.0004
 128359173.144 6 100020154.46343  24425926.528    24425920.284    24425923.314
        36.000          18.0004
 120857363.768 6  94174579.20143  22998382.888    22998382.665    22998382.025
        41.000          23.0004
 108860914.316 8  84826692.26747  20715538.936    20715535.682    20715538.387
        50.000          42.0004
 109193494.124 8  85085851.06247  20778818.429    20778816.131    20778816.893
        50.000          42.0004
 130798448.158 6 101920869.89342  24890113.075    24890112.323    24890110.607
        36.000          12.0004
 129598304.030 5 100985700.35142  24661735.960    24661733.297    24661733.838
        35.000          12.0004
 121129861.302 7  94386925.45745  23050233.527    23050229.633    23050232.597
        46.000          30.0004
 13  1  1  1 29  0.0000000  0 10G11G20G01G14G30G31G32G25G16G23
 121506787.088 7  94680615.57144  23121959.260    23121957.724    23121958.567
        43.000          27.0004
 112033760.599 8  87299033.86246  21319302.720    21319299.921    21319301.277
        48.000          38.0004
 112552850.906 8  87703538.20846  21418083.778    21418084.120    21418082.893
        50.000          40.0004
 128387992.419 6 100042611.04442  24431411.240    24431408.190    24431409.635
        38.000          13.0004
 120726694.232 7  94072758.80744  22973517.575    22973516.775    22973517.054
        42.000          24.0004
 108865478.166 8  84830248.52247  20716407.302    20716403.898    20716406.830
        51.000          43.0004
 109128405.634 8  85035132.76247  20766431.840    20766430.023    20766430.474
        50.000          42.0004
 130799709.321 5 101921852.68042  24890352.512    24890352.382    24890350.511
        34.000          12.0004
 129455576.176 6 100874483.93542  24634574.384    24634573.148    24634573.354
        37.000          12.0004
 121024525.711 7  94304845.83245  23030188.422    23030184.081    23030188.282
        45.000          31.0004
 13  1  1  1 29 30.0000000  0 10G11G20G01G14G30G31G32G25G16G23
 121539279.558 7  94705934.35744  23128143.112    23128141.047    23128141.545
        43.000          27.0004
 111921147.085 8  87211283.09346  21297872.807    21297870.636    21297871.688
        48.000          38.0004
 112547519.226 8  87699383.65146  21417069.276    21417069.710    21417067.998
        49.000          40.0004
 128416792.663 6 100065052.76342  24436891.047    24436888.016    24436889.616
        38.000          16.0004
 120596255.378 6  93971118.17944  22948695.840    22948694.482    22948694.362
        41.000          25.0004
 108870511.930 8  84834170.94247  20717365.379    20717361.808    20717364.723
        51.000          42.0004
 109063635.017 8  84984662.14947  20754106.670    20754104.468    20754105.227
        49.000          42.0004
 130801458.376 5 101923215.59741  24890684.117    24890684.858    24890683.676
        34.000          11.0004
 129312760.979 6 100763199.41142  24607399.215    24607397.272    24607397.465
        37.000          12.0004
 120919293.399 7  94222846.67345  23010163.907    23010159.751    23010162.813
        46.000          31.0004
 13  1  1  1 30  0.0000000  0 10G11G20G01G14G30G31G32G25G16G23
 121571974.599 7  94731410.99644  23134364.626    23134362.947    23134364.335
        44.000          27.0004
 111808818.715 8  87123754.52046  21276497.604    21276494.914    21276496.136
        49.000          38.0004
 112542714.246 8  87695639.51646  21416154.391    21416155.388    21416153.388
        49.000          40.0004
 128445575.981 5 100087481.28942  24442367.066    24442365.337    24442365.854
        34.000          16.0004
 120466052.631 6  93869661.54744  22923918.933    22923918.494    22923917.941
        41.000          25.0004
 108876015.419 8  84838459.39347  20718412.395    20718409.225    20718412.013
        51.000          42.0004
 108999185.734 8  84934441.93547  20741842.253    20741840.332    20741840.990
        50.000          42.0004
 130803696.387 5 101924959.51641  24891111.153    24891110.194    24891110.783
        34.000          11.0004
 129169863.820 6 100651851.04742  24580205.826    24580205.350    24580204.093
        36.000          12.0004
 120814166.332 7  94140929.53245  22990158.447    22990154.284    22990157.265
        45.000          30.0004
 13  1  1  1 30 30.0000000  0 10G11G20G01G14G30G31G32G25G16G23
 121604871.088 7  94757044.63144  23140625.233    23140623.068    23140623.426
        44.000          27.0004
 111696779.360 8  87036451.15046  21255177.045    21255174.190    21255175.760
        48.000          38.0004
 112538436.104 8  87692305.89546  21415339.897    21415341.639    21415338.835
        48.000          39.0004
 128474344.100 6 100109897.96442  24447841.610    24447839.240    24447840.043
        37.000          14.0004
 120336091.421 7  93768393.12044  22899188.855    22899187.782    22899187.689
        42.000          25.0004
 108881988.438 8  84843113.70147  20719549.101    20719545.804    20719548.640
        49.000          42.0004
 108935061.230 8  84884474.78847  20729640.060    20729637.715    20729638.547
        50.000          42.0004
 130806424.027 5 101927084.98041  24891629.969    24891627.660    24891628.125
        33.000           8.0004
 129026889.610 6 100540442.63942  24552998.081    24552997.114    24552997.222
        36.000          13.0004
 120709145.996 7  94059095.56845  22970174.049    22970169.092    22970173.042
        44.000          30.0004
 13  1  1  1 31  0.0000000  0 10G11G20G01G14G30G31G32G25G16G23
 121637961.961 7  94782829.73444  23146921.116    23146918.914    23146920.912
        44.000          27.0004
 111585026.557 8  86949371.06246  21233911.903    21233908.247    21233910.268
        49.000          39.0004
 112534678.580 8  87689377.94746  21414625.316    21414626.688    21414624.164
        49.000          39.0004
 128503092.720 6 100132299.50542  24453313.158    24453310.694    24453310.901
        36.000          14.0004
 120206370.537 7  93667311.94344  22874504.087    22874501.637    22874502.958
        42.000          25.0004
 108888424.404 8  84848128.74547  20720773.942    20720770.685    20720773.083
        50.000          42.0004
 108871258.425 8  84834758.32646  20717498.537    20717496.579    20717497.323
        48.000          41.0004
 130809635.605 5 101929587.50241  24892242.705    24892241.249    24892238.697
        30.000           8.0004
 128883836.560 6 100428972.80542  24525777.017    24525773.739    24525774.345
        36.000          13.0004
 120604228.048 7  93977341.37945  22950208.854    22950204.186    22950208.375
        46.000          30.0004
 13  1  1  1 31 30.0000000  0 10G11G20G01G14G30G31G32G25G16G23
 121671249.129 7  94808767.78644  23153256.046    23153253.657    23153253.897
        43.000          27.0004
 111473568.076 8  86862520.31446  21212702.158    21212698.661    21212700.417
        49.000          39.0004
 112531444.996 7  87686858.27246  21414009.762    21414011.299    21414008.493
        47.000          39.0004
 128531827.123 5 100154689.93742  24458780.719    24458777.902    24458778.594
        35.000          14.0004
 120076898.547 7  93566424.71844  22849866.804    22849864.559    22849864.560
        43.000          26.0004
 108895325.854 8  84853506.51047  20722087.131    20722083.956    20722086.344
        50.000          42.0004
 108807783.888 8  84785297.64047  20705419.855    20705417.719    20705418.504
        50.000          42.0004
 130813335.175 4 101932470.2794   24892943.539    24892945.944    24892942.516
        29.000           3.0004
 128740713.385 6 100317448.30941  24498540.885    24498538.058    24498538.757
        36.000          11.0004
 120499417.932 7  93895671.21345  22930263.799    22930259.374    22930262.822
        46.000          30.0004
 13  1  1  1 32  0.0000000  0 10G11G20G01G14G30G31G32G25G16G23
 121704725.899 7  94834853.57744  23159626.040    23159624.189    23159626.372
        44.000          26.0004
 111362401.784 8  86775897.25546  21191547.335    21191544.810    21191546.155
        48.000          39.0004
 112528729.368 7  87684742.20146  21413493.156    21413494.306    21413491.985
        47.000          39.0004
 128560542.565 6 100177065.54542  24464246.798    24464241.476    24464243.254
        36.000          14.0004
 119947674.545 7  93465730.71144  22825276.089    22825273.118    22825274.197
        44.000          26.0004
 108902686.534 8  84859242.11547  20723488.003    20723484.494    20723487.316
        49.000          42.0004
 108744634.832 8  84736090.59047  20693403.243    20693400.980    20693401.770
        50.000          42.0004
 130817517.274 5 101935729.0724   24893741.771    24893742.199    24893738.477
        32.000           3.0004
 128597518.333 6 100205867.81341  24471292.421    24471290.017    24471290.657
        36.000          11.0004
 120394710.531 7  93814081.08945  22910338.923    22910334.186    22910336.942
        45.000          30.0004
 13  1  1  1 32 30.0000000  0 10G11G20G01G14G30G31G32G25G16G23
 121738391.116 7  94861086.20044  23166033.100    23166029.940    23166031.564
        44.000          26.0004
 111251531.628 8  86689504.95046  21170449.420    21170446.370    21170447.854
        48.000          39.0004
 112526531.515 8  87683029.58446  21413074.902    21413076.367    21413073.597
        49.000          39.0004
 128589241.310 6 100199428.23341  24469706.498    24469702.758    24469705.010
        38.000          11.0004
 119818703.588 7  93365233.86844  22800733.472    22800732.036    22800731.560
        43.000          26.0004
 108910505.736 8  84865335.01147  20724975.714    20724972.614    20724975.200
        51.000          42.0004
 108681814.300 8  84687139.53147  20681448.880    20681446.571    20681447.537
        50.000          42.0004
 130822182.316 5 101939364.19041  24894627.556    24894629.850    24894626.877
        34.000           7.0004
 128454255.906 6 100094234.80941  24444029.877    24444028.537    24444028.782
        38.000          11.0004
 120290107.627 7  93732572.37745  22890432.872    22890428.165    22890431.676
        45.000          30.0004
 13  1  1  1 33  0.0000000  0 10G11G20G01G14G30G31G32G25G16G23
 121772238.083 7  94887460.45644  23172474.229    23172471.245    23172473.393
        43.000          26.0004
 111140956.184 8  86603342.27846  21149407.669    21149404.626    21149406.268
        49.000          39.0004
 112524845.854 8  87681716.08146  21412754.407    21412755.002    21412753.809
        49.000          39.0004
 128617919.791 6 100221775.13541  24475163.243    24475160.035    24475161.817
        36.000          11.0004
 119689985.188 7  93264933.83044  22776238.635    22776236.570    22776236.647
        43.000          26.0004
 108918777.598 8  84871780.63547  20726549.915    20726546.627    20726549.439
        51.000          42.0004
 108619319.962 8  84638442.64647  20669556.368    20669554.362    20669554.859
        50.000          42.0004
 130827325.311 5 101943371.72541  24895607.057    24895608.166    24895605.422
        34.000           7.0004
 128310925.779 6  99982549.07941  24416754.834    24416753.201    24416754.231
        38.000          11.0004
 120185605.457 7  93651142.16844  22870546.698    22870542.475    22870546.274
        44.000          29.0004
 13  1  1  1 33 30.0000000  0 10G11G20G01G14G30G31G32G25G16G23
 121806268.024 7  94913977.30744  23178949.673    23178946.470    23178948.601
        43.000          26.0004
 111030681.478 8  86517413.95846  21128422.910    21128420.080    21128421.608
        49.000          39.0004
 112523674.355 8  87680803.22446  21412531.695    21412532.565    21412530.797
        49.000          39.0004
 128646581.611 6 100244109.02442  24480616.329    24480615.203    24480616.210
        37.000          12.0004
 119561526.651 7  93164836.27144  22751793.705    22751792.229    22751791.980
        43.000          26.0004
 108927503.800 8  84878580.28347  20728210.548    20728207.028    20728210.037
        50.000          43.0004
 108557157.149 8  84590004.09147  20657727.246    20657725.128    20657725.804
        51.000          42.0004
 130832948.772 6 101947753.67642  24896676.976    24896677.173    24896676.522
        37.000          12.0004
 128167534.867 6  99870815.99242  24389468.875    24389467.355    24389467.201
        36.000          14.0004
 120081207.926 7  93569793.48544  22850680.604    22850676.112    22850678.990
        45.000          29.0004
 13  1  1  1 34  0.0000000  0 10G11G20G01G14G30G31G32G25G16G23
 121840477.642 7  94940634.15344  23185459.328    23185457.065    23185457.988
        43.000          26.0004
 110920709.352 8  86431721.41546  21107495.916    21107493.262    21107494.675
        50.000          39.0004
 112523014.702 8  87680289.20946  21412406.006    21412406.803    21412405.103
        49.000          39.0004
 128675226.630 5 100266429.81142  24486067.169    24486066.285    24486066.691
        35.000          12.0004
 119433331.005 7  93064943.59044  22727398.831    22727397.364    22727397.570
        43.000          26.0004
 108936681.648 8  84885731.86047  20729957.079    20729953.182    20729956.495
        51.000          42.0004
 108495326.868 8  84541824.64747  20645961.512    20645959.416    20645960.051
        49.000          42.0004
 130839051.099 5 101952508.78942  24897840.006    24897837.722    24897836.481
        33.000          12.0004
 128024085.391 6  99759037.22042  24362171.114    24362170.122    24362169.890
        37.000          14.0004
 119976914.401 7  93488525.85244  22830833.494    22830829.820    22830832.607
        45.000          29.0004
 13  1  1  1 34 30.0000000  0 10G11G20G01G14G30G31G32G25G16G23
 121874858.587 7  94967424.48944  23192000.952    23191999.422    23192000.356
        42.000          26.0004
 110811036.820 8  86346262.31746  21086625.823    21086623.293    21086624.525
        49.000          39.0004
 112522859.510 8  87680168.28746  21412376.277    21412377.167    21412375.425
        49.000          39.0004
 128703848.942 6 100288732.88842  24491515.577    24491512.378    24491513.847
        37.000          13.0004
 119305395.924 7  92965253.93944  22703052.939    22703053.056    22703052.085
        43.000          27.0004
 108946303.259 8  84893229.22847  20731787.829    20731784.316    20731787.111
        51.000          42.0004
 108433824.860 8  84493901.00947  20634257.942    20634255.996    20634256.157
        49.000          42.0004
 130845625.418 6 101957631.63442  24899089.692    24899089.548    24899088.606
        36.000          13.0004
 127880574.914 6  99647210.90042  24334862.493    24334860.277    24334860.324
        38.000          14.0004
 119872719.237 7  93407334.86444  22811006.103    22811002.150    22811004.919
        45.000          29.0004
 13  1  1  1 35  0.0000000  0 10G11G20G01G14G30G31G32G25G16G23
 121909411.396 7  94994348.73944  23198576.392    23198574.410    23198576.157
        42.000          25.0004
 110701669.227 8  86261040.84246  21065813.841    21065811.336    21065812.598
        49.000          39.0004
 112523210.133 7  87680441.49646  21412442.908    21412443.886    21412442.297
        47.000          39.0004
 128732452.096 6 100311021.05242  24496958.133    24496954.993    24496956.909
        37.000          13.0004
 119177728.262 7  92865772.67144  22678759.201    22678758.326    22678757.668
        43.000          27.0004
 108956369.433 8  84901073.01047  20733703.103    20733699.947    20733702.530
        50.000          42.0004
 108372656.016 8  84446236.97847  20622617.928    20622615.809    20622616.389
        50.000          42.0004
 130852673.618 5 101963123.75242  24900429.962    24900429.574    24900429.259
        34.000          13.0004
 127737009.845 6  99535342.09942  24307542.338    24307540.453    24307541.080
        38.000          15.0004
 119768625.502 7  93326222.89045  22791197.632    22791193.760    22791196.548
        45.000          30.0004
 13  1  1  1 35 30.0000000  0 10G11G20G01G14G30G31G32G25G16G23
 121944136.338 7  95021407.15644  23205184.677    23205181.638    23205182.910
        43.000          25.0004
 110592611.837 8  86176061.07546  21045061.408    21045057.983    21045059.954
        49.000          39.0004
 112524067.535 7  87681109.59646  21412606.394    21412606.888    21412605.264
        47.000          39.0004
 128761039.287 5 100333296.81042  24502398.694    24502394.799    24502396.330
        35.000          13.0004
 119050333.962 7  92766504.40544  22654516.968    22654516.075    22654515.582
        43.000          27.0004
 108966881.016 8  84909263.86047  20735703.406    20735700.031    20735702.782
        50.000          42.0004
 108311824.405 8  84398835.72347  20611041.943    20611040.130    20611040.631
        50.000          42.0004
 130860197.437 5 101968986.48742  24901861.864    24901861.151    24901860.892
        32.000          12.0004
 127593396.351 6  99423435.57242  24280213.857    24280211.374    24280212.826
        39.000          15.0004
 119664636.101 7  93245192.24145  22771409.638    22771404.778    22771408.870
        46.000          30.0004
 13  1  1  1 36  0.0000000  0 10G11G20G01G14G30G31G32G25G16G23
 121979030.818 7  95048597.66744  23211824.566    23211822.194    23211823.487
        42.000          26.0004
 110483867.350 8  86091325.12946  21024368.092    21024364.370    21024366.647
        49.000          39.0004
 112525430.232 8  87682171.43146  21412865.583    21412866.749    21412864.395
        48.000          38.0004
 128789610.971 6 100355560.41842  24507836.534    24507832.747    24507834.389
        36.000          13.0004
 118923217.087 7  92667452.30844  22630327.923    22630325.947    22630326.142
        43.000          27.0004
 108977836.416 8  84917800.54447  20737788.201    20737784.874    20737787.703
        50.000          42.0004
 108251332.046 8  84351698.82247  20599530.691    20599528.434    20599529.302
        50.000          42.0004
 130868195.813 6 101975219.00742  24903385.322    24903383.732    24903383.612
        36.000          12.0004
 127449737.751 6  99311493.86942  24252877.632    24252874.495    24252875.389
        38.000          15.0004
 119560751.584 7  93164243.29645  22751640.873    22751636.786    22751639.994
        45.000          30.0004
 13  1  1  1 36 30.0000000  0 10G11G20G01G14G30G31G32G25G16G23
 122014084.103 7  95075911.90244  23218495.116    23218492.963    23218493.875
        42.000          26.0004
 110375430.277 8  86006828.71846  21003733.171    21003729.570    21003731.451
        48.000          39.0004
 112527288.350 8  87683619.30246  21413218.913    21413219.974    21413217.940
        48.000          39.0004
 128818159.165 6 100377805.73041  24513267.658    24513265.157    24513266.166
        36.000          10.0004
 118796373.150 7  92568612.90144  22606190.143    22606189.057    22606188.387
        44.000          28.0004
 108989225.151 8  84926674.88747  20739955.400    20739952.452    20739954.992
        51.000          42.0004
 108191172.442 8  84304821.20247  20588082.564    20588080.642    20588081.223
        50.000          42.0004
 130876659.673 5 101981814.24841  24904996.077    24904994.981    24904994.682
        35.000           9.0004
 127306029.106 6  99199513.16042  24225530.466    24225527.312    24225528.868
        38.000          15.0004
 119456963.896 7  93083369.81045  22731891.088    22731886.379    22731889.315
        47.000          30.0004
 13  1  1  1 37  0.0000000  0 10G11G20G01G14G30G31G32G25G16G23
 123624714.669 7  96330948.69844  23524988.488    23524985.221    23524986.746
        43.000          26.0004
 111842728.413 8  87150177.93146  21282950.278    21282947.364    21282948.969
        49.000          39.0004
 114105062.054 7  88913053.33646  21713458.968    21713460.278    21713458.070
        47.000          38.0004
 130422105.334 5 101627633.90341  24818488.179    24818485.869    24818486.908
        34.000          10.0004
 120245231.824 7  93697593.71044  22881898.273    22881896.771    22881896.853
        44.000          29.0004
 110576466.607 8  86163486.41947  21041997.480    21041994.657    21041996.757
        50.000          42.0004
 109706771.210 8  85485807.25347  20876491.747    20876489.836    20876490.260
        49.000          42.0004
 132461009.399 5 103216372.47341  25206486.104    25206485.557    25206486.508
        32.000           9.0004
 128737700.801 5 100315101.56342  24497966.994    24497965.758    24497965.203
        35.000          14.0004
 120928698.529 7  94230176.04945  23011952.790    23011947.359    23011951.537
        45.000          31.0004
 13  1  1  1 37 30.0000000  0 10G11G20G01G14G30G31G32G25G16G23
 123660082.555 7  96358508.08344  23531718.606    23531717.675    23531717.289
        43.000          26.0004
 111734917.614 8  87066169.53446  21262434.731    21262431.230    21262433.231
        50.000          39.0004
 114107910.022 7  88915272.51746  21714001.611    21714002.253    21714000.317
        47.000          38.0004
 130450612.260 5 101649847.06142  24823912.768    24823911.773    24823911.227
        34.000          12.0004
 120118948.620 7  93599191.24644  22857867.311    22857865.229    22857865.952
        44.000          29.0004
 110588719.963 8  86173034.49047  21044329.084    21044325.941    21044328.713
        49.000          42.0004
 109647286.223 8  85439455.31647  20865172.045    20865169.949    20865170.622
        50.000          42.0004
 132470404.775 5 103223693.56741  25208274.443    25208273.683    25208273.594
        32.000           9.0004
 128593906.822 5 100203054.36942  24470603.919    24470601.283    24470601.680
        34.000          14.0004
 120825109.036 7  94149457.00645  22992240.610    22992235.842    22992239.260
        46.000          31.0004
 13  1  1  1 38  0.0000000  0 10G11G20G01G14G30G31G32G25G16G23
 123695603.337 7  96386186.61844  23538477.603    23538475.838    23538476.355
        42.000          26.0004
 111627423.121 8  86982407.59846  21241978.852    21241976.142    21241977.819
        49.000          39.0004
 114111249.737 8  88917874.89146  21714636.886    21714638.070    21714636.295
        49.000          39.0004
 130479098.426 5 101672044.06242  24829335.178    24829331.611    24829332.745
        35.000          13.0004
 119992950.584 7  93501010.96045  22833891.142    22833889.403    22833889.478
        44.000          30.0004
 110601402.040 8  86182916.63047  21046742.640    21046739.282    21046741.993
        50.000          42.0004
 109588140.582 8  85393367.80747  20853916.522    20853914.664    20853915.385
        49.000          42.0004
 132480263.646 5 103231375.82941  25210150.340    25210151.837    25210149.460
        32.000           6.0004
 128450074.534 6 100090977.32041  24443234.374    24443231.827    24443232.281
        37.000          11.0004
 120721618.159 7  94068814.82345  22972546.282    22972542.486    22972545.473
        46.000          31.0004
 13  1  1  1 38 30.0000000  0 10G11G20G01G14G30G31G32G25G16G23
 123731272.865 7  96413981.06744  23545265.645    23545262.300    23545264.836
        42.000          25.0004
 111520246.100 8  86898893.05446  21221583.841    21221581.056    21221582.423
        50.000          39.0004
 114115077.591 8  88920857.62046  21715365.200    21715366.557    21715364.521
        48.000          39.0004
 130507562.563 6 101694223.88842  24834751.791    24834748.304    24834748.791
        36.000          13.0004
 119867239.693 7  93403054.43645  22809968.681    22809967.229    22809967.534
        44.000          30.0004
 110614509.121 8  86193129.94346  21049236.636    21049233.730    21049235.978
        49.000          41.0004
 109529334.073 8  85347544.55147  20842726.195    20842724.159    20842724.599
        49.000          42.0004
 132490583.056 5 103239416.94641  25212114.772    25212113.345    25212112.880
        31.000           6.0004
 128306205.647 6  99978871.74241  24415857.296    24415855.556    24415855.610
        38.000          11.0004
 120618224.716 7  93988248.55145  22952871.017    22952867.348    22952869.566
        45.000          31.0004
 13  1  1  1 39  0.0000000  0 10G11G20G01G14G30G31G32G25G16G23
 123767091.944 7  96441892.03144  23552081.347    23552078.989    23552080.503
        42.000          25.0004
 111413392.411 8  86815630.45846  21201250.065    21201247.183    21201248.561
        48.000          39.0004
 114119395.358 7  88924222.10046  21716186.956    21716187.767    21716185.945
        47.000          39.0004
 130536008.420 6 101716389.50342  24840164.735    24840160.694    24840162.466
        38.000          12.0004
 119741822.979 7  93305327.17044  22786102.675    22786100.672    22786100.897
        45.000          29.0004
 110628042.251 8  86203675.24646  21051811.899    21051808.740    21051811.210
        49.000          41.0004
 109470871.717 8  85301989.47046  20831601.415    20831599.240    20831599.894
        50.000          41.0004
 132501365.338 5 103247818.7494   25214164.783    25214167.913    25214165.523
        30.000           1.0004
 128162306.868 6  99866742.86142  24388473.255    24388471.394    24388472.964
        38.000          16.0004
 120514932.517 7  93907761.16945  22933214.581    22933211.566    22933214.240
        45.000          31.0004
 13  1  1  1 39 30.0000000  0 10G11G20G01G14G30G31G32G25G16G23
 123803054.858 7  96469915.06244  23558925.405    23558923.026    23558923.645
        42.000          25.0004
 111306861.157 8  86732619.10946  21180978.257    21180974.712    21180976.823
        50.000          40.0004
 114124197.769 8  88927964.23546  21717100.847    21717101.238    21717099.602
        48.000          39.0004
 130564433.084 6 101738538.62942  24845573.681    24845569.943    24845571.177
        38.000          12.0004
 119616700.710 7  93207829.32845  22762292.964    22762291.532    22762291.891
        45.000          30.0004
 110641996.562 8  86214548.74346  21054467.354    21054464.347    21054466.651
        51.000          41.0004
 109412751.853 8  85256701.26947  20820541.696    20820539.597    20820540.112
        51.000          42.0004
 132512605.932 4 103256577.6924   25216305.461    25216306.768    25216306.201
        29.000           1.0004
 128018378.328 6  99754590.84542  24361085.667    24361083.684    24361084.101
        38.000          16.0004
 120411738.024 7  93827349.92545  22913577.484    22913573.485    22913577.107
        46.000          31.0004
 13  1  1  1 40  0.0000000  0 10G11G20G01G14G30G31G32G25G16G23
 123839157.583 7  96498047.05044  23565795.510    23565792.491    23565794.741
        42.000          25.0004
 111200653.761 8  86649860.11146  21160767.561    21160764.240    21160766.063
        48.000          40.0004
 114129481.895 8  88932081.72346  21718106.827    21718107.429    21718105.817
        48.000          39.0004
 130592836.007 6 101760670.78142  24850978.269    24850975.439    24850975.949
        36.000          13.0004
 119491875.238 7  93110562.74844  22738539.030    22738537.216    22738537.280
        44.000          29.0004
 110656368.377 8  86225747.57247  21057202.444    21057198.957    21057201.845
        49.000          42.0004
 109354975.051 8  85211680.39147  20809546.835    20809544.971    20809545.330
        49.000          42.0004
 132524302.312 4 103265691.7934   25218532.090    25218531.371    25218527.883
        29.000           1.0004
 127874422.501 6  99642417.51142  24333691.045    24333689.396    24333690.069
        37.000          17.0004
 120308640.348 7  93747014.10745  22893959.194    22893954.557    22893957.824
        45.000          31.0004
 13  1  1  1 40 30.0000000  0  9G11G20G01G14G30G31G32G16G23
 123875400.640 7  96526288.40744  23572692.182    23572690.699    23572691.366
        42.000          25.0004
 111094775.638 8  86567357.69046  21140619.721    21140616.183    21140618.215
        49.000          40.0004
 114135248.652 8  88936575.29546  21719204.358    21719205.039    21719203.225
        49.000          39.0004
 130621220.086 6 101782788.25142  24856379.040    24856376.590    24856377.363
        36.000          13.0004
 119367352.968 7  93013532.41644  22714842.962    22714842.205    22714841.709
        44.000          29.0004
 110671158.544 8  86237272.38247  21060016.794    21060013.539    21060016.184
        49.000          42.0004
 109297545.556 8  85166930.14247  20798618.426    20798616.459    20798616.872
        50.000          42.0004
 127730445.286 6  99530227.55842  24306292.347    24306291.141    24306291.443
        36.000          16.0004
 120205642.362 7  93666755.96645  22874359.464    22874354.357    22874358.446
        47.000          32.0004
 13  1  1  1 41  0.0000000  0  9G11G20G01G14G30G31G32G16G23
 123911780.591 6  96554636.41344  23579614.641    23579613.491    23579613.495
        41.000          24.0004
 110989228.514 8  86485113.19346  21120534.910    21120531.491    21120533.239
        50.000          40.0004
 114141495.356 8  88941442.83546  21720392.413    21720393.467    21720391.430
        48.000          38.0004
 130649584.964 6 101804890.76442  24861777.326    24861774.352    24861776.315
        37.000          12.0004
 119243136.852 7  92916740.67045  22691206.002    22691204.823    22691204.458
        45.000          30.0004
 110686364.013 8  86249120.81147  21062910.191    21062906.985    21062909.974
        49.000          42.0004
 109240464.297 8  85122451.24147  20787756.666    20787754.320    20787754.968
        50.000          42.0004
 127586449.172 6  99418022.84142  24278890.960    24278888.878    24278889.454
        36.000          16.0004
 120102743.562 7  93586575.10945  22854778.551    22854773.958    22854777.519
        46.000          32.0004
 13  1  1  1 41 30.0000000  0  9G11G20G01G14G30G31G32G16G23
 123948294.272 6  96583088.63244  23586562.479    23586560.445    23586562.154
        41.000          24.0004
 110884014.009 8  86403127.87546  21100513.355    21100509.716    21100511.545
        50.000          40.0004
 114148219.338 7  88946682.29746  21721672.453    21721672.733    21721670.799
        47.000          38.0004
 130677930.372 5 101826978.07342  24867171.537    24867168.725    24867169.369
        35.000          12.0004
 119119229.499 7  92820189.52445  22667627.442    22667625.347    22667626.146
        45.000          31.0004
 110701981.928 8  86261290.62947  21065882.206    21065878.773    21065881.978
        49.000          42.0004
 109183732.097 8  85078244.32947  20776960.771    20776958.488    20776959.389
        50.000          42.0004
 127442437.091 6  99305805.68742  24251486.790    24251484.008    24251486.110
        38.000          14.0004
 119999943.425 7  93506471.13745  22835215.532    22835211.917    22835214.958
        47.000          32.0004
 13  1  1  1 42  0.0000000  0  9G11G20G01G14G30G31G32G16G23
 123984942.100 7  96611645.37944  23593536.880    23593534.014    23593535.962
        42.000          24.0004
 110779137.612 8  86321406.02746  21080555.491    21080552.590    21080553.942
        50.000          40.0004
 114155421.509 8  88952294.37346  21723042.611    21723043.775    21723041.562
        48.000          38.0004
 130706259.338 5 101849052.61441  24872561.776    24872559.935    24872559.695
        35.000           9.0004
 118995637.560 7  92723884.16545  22644108.768    22644106.503    22644107.185
        46.000          31.0004
 110718013.094 8  86273782.45647  21068932.927    21068929.347    21068932.677
        50.000          42.0004
 109127353.307 8  85034312.81047  20766232.196    20766229.796    20766230.537
        50.000          42.0004
 127298415.246 6  99193580.91942  24224080.350    24224077.137    24224079.067
        38.000          14.0004
 119897244.715 7  93426446.21645  22815672.837    22815668.745    22815671.628
        46.000          31.0004
 13  1  1  1 42 30.0000000  0  9G11G20G01G14G30G31G32G16G23
 124021716.055 7  96640300.41344  23600534.880    23600534.038    23600534.463
        42.000          24.0004
 110674596.476 8  86239945.41746  21060662.290    21060659.242    21060660.607
        49.000          40.0004
 114163094.709 8  88958273.47846  21724502.939    21724503.786    21724502.045
        48.000          38.0004
 130734567.425 5 101871110.92241  24877949.722    24877945.895    24877947.407
        34.000           9.0004
 118872359.117 7  92627823.09345  22620649.125    22620647.934    22620647.927
        45.000          31.0004
 110734449.987 8  86286590.43246  21072060.953    21072057.355    21072060.290
        50.000          41.0004
 109071324.322 8  84990653.86147  20755570.174    20755567.764    20755568.671
        50.000          42.0004
 127154381.717 6  99081347.06442  24196672.358    24196670.536    24196670.616
        40.000          16.0004
 119794642.652 7  93346496.59045  22796148.848    22796144.105    22796147.360
        47.000          31.0004
 13  1  1  1 43  0.0000000  0  9G11G20G01G14G30G31G32G16G23
 124058616.726 7  96669054.19344  23607557.549    23607554.509    23607555.802
        43.000          25.0004
 110570396.016 8  86158750.27046  21040833.335    21040830.326    21040831.832
        50.000          40.0004
 114171239.668 8  88964620.18846  21726052.692    21726053.848    21726051.653
        48.000          38.0004
 130762857.614 5 101893155.3364   24883330.778    24883332.625    24883327.753
        31.000           3.0004
 118749400.379 7  92532011.14445  22597250.488    22597249.140    22597249.603
        45.000          31.0004
 110751293.195 8  86299715.01946  21075265.689    21075262.592    21075265.003
        50.000          41.0004
 109015649.403 8  84947270.81047  20744975.659    20744973.146    20744974.012
        49.000          42.0004
 127010342.729 6  98969108.92542  24169261.715    24169260.273    24169261.019
        40.000          16.0004
 119692140.306 7  93266624.66945  22776643.434    22776638.466    22776642.255
        47.000          31.0004
 13  1  1  1 43 30.0000000  0  9G11G20G01G14G30G31G32G16G23
 124095640.410 6  96697903.80944  23614602.870    23614600.434    23614601.223
        41.000          25.0004
 110466537.489 8  86077821.55946  21021069.641    21021066.553    21021067.941
        49.000          40.0004
 114179853.401 7  88971332.17046  21727691.942    21727692.981    21727690.642
        46.000          38.0004
 130791128.976 5 101915185.0394   24888713.227    24888712.229    24888703.858
        31.000           3.0004
 118626764.068 7  92436450.41245  22573913.438    22573911.342    22573911.657
        45.000          30.0004
 110768539.417 8  86313153.64246  21078547.498    21078544.493    21078546.671
        50.000          41.0004
 108960329.113 8  84904164.09347  20734448.599    20734446.080    20734446.956
        50.000          42.0004
 126866300.746 6  98856868.50843  24141851.182    24141849.228    24141849.795
        39.000          19.0004
 119589736.551 7  93186829.55845  22757156.441    22757151.537    22757156.132
        46.000          31.0004
 13  1  1  1 44  0.0000000  0  9G11G20G01G14G30G31G32G16G23
 124132785.044 7  96726847.67344  23621670.888    23621668.597    23621669.409
        42.000          25.0004
 110363024.587 8  85997162.17746  21001371.389    21001368.692    21001369.985
        48.000          40.0004
 114188934.726 8  88978408.52046  21729420.080    21729420.899    21729418.699
        48.000          38.0004
 130819382.988 5 101937201.3434   24894090.278    24894090.454    24894060.821
        30.000           2.0004
 118504454.508 7  92341144.31245  22550638.909    22550637.217    22550636.966
        44.000          30.0004
 110786187.500 8  86326905.39346  21081905.915    21081902.736    21081905.267
        51.000          41.0004
 108905365.840 8  84861335.58347  20723988.901    20723987.158    20723987.442
        48.000          42.0004
 126722260.009 6  98744629.03443  24114440.674    24114439.110    24114439.510
        38.000          19.0004
 119487432.444 7  93107112.09245  22737688.552    22737684.036    22737687.897
        47.000          32.0004
 13  1  1  1 44 30.0000000  0  9G11G20G01G14G30G31G32G16G23
 124170045.724 7  96755881.97544  23628761.394    23628758.268    23628760.799
        43.000          24.0004
 110259856.980 8  85916771.84746  20981739.403    20981736.939    20981737.849
        49.000          40.0004
 114198478.955 7  88985845.56546  21731235.922    21731237.171    21731234.885
        47.000          37.0004
 130847617.277 5                  24899462.650
        33.000
 118382472.523 7  92246093.46945  22527426.165    22527425.592    22527425.037
        44.000          30.0004
 110804232.635 8  86340966.53946  21085339.387    21085336.378    21085339.211
        50.000          41.0004
 108850758.466 8  84818784.38247  20713597.822    20713595.440    20713596.268
        50.000          42.0004
 126578221.146 6  98632391.01843  24087031.234    24087029.891    24087031.106
        40.000          18.0004
 119385225.484 7  93027470.33445  22718238.211    22718234.931    22718237.845
        46.000          32.0004
 13  1  1  1 45  0.0000000  0  9G11G20G01G14G30G31G32G16G23
 124207421.222 7  96785005.72244  23635874.151    23635871.156    23635873.567
        43.000          24.0004
 110157038.326 8  85836653.42846  20962173.801    20962171.058    20962172.255
        50.000          40.0004
 114208485.301 8  88993642.70546  21733140.354    21733141.248    21733139.365
        48.000          38.0004
 130875833.462 5                  24904830.294
        35.000
 118260822.822 7  92151301.55545  22504277.208    22504276.494    22504276.096
        45.000          31.0004
 110822673.809 8  86355336.28846  21088849.028    21088845.610    21088848.057
        50.000          41.0004
 108796509.755 8  84776512.66747  20703274.751    20703272.384    20703273.048
        49.000          42.0004
 126434188.876 6  98520158.14343  24059622.591    24059621.385    24059622.845
        39.000          19.0004
 119283116.987 7  92947905.30245  22698807.901    22698804.497    22698806.604
        46.000          32.0004
 13  1  1  1 45 30.0000000  0  9G11G20G01G14G30G31G32G16G23
 124244907.380 7  96814215.68244  23643007.383    23643003.968    23643006.796
        42.000          24.0004
 110054569.823 8  85756807.85346  20942674.771    20942671.841    20942673.556
        50.000          41.0004
 114218950.403 7  89001797.33146  21735131.702    21735132.860    21735130.558
        47.000          38.0004
 130904030.948 5                  24910196.005
        33.000
 118139507.772 7  92056770.39245  22481191.885    22481190.001    22481190.317
        45.000          31.0004
 110841507.473 8  86370011.87746  21092432.977    21092429.273    21092432.278
        49.000          41.0004
 108742619.964 8  84734520.62647  20693019.748    20693017.553    20693018.309
        50.000          42.0004
 126290165.550 6  98407932.18943  24032215.318    24032215.055    24032215.136
        38.000          19.0004
 119181106.219 7  92868416.43445  22679395.639    22679392.959    22679394.828
        45.000          32.0004
 13  1  1  1 46  0.0000000  0  9G11G20G01G14G30G31G32G16G23
 124282500.578 6  96843509.09744  23650160.410    23650157.020    23650158.693
        41.000          24.0004
 109952452.711 8  85677236.09246  20923242.364    20923239.643    20923241.176
        49.000          41.0004
 114229870.908 7  89010306.80646  21737209.613    21737211.002    21737208.616
        46.000          38.0004
 130932208.886 5                  24915559.763
        34.000
 118018529.307 7  91962501.49745  22458170.367    22458168.260    22458169.115
        45.000          31.0004
 110860730.001 8  86384990.47646  21096090.919    21096087.469    21096090.571
        49.000          41.0004
 108689089.294 8  84692808.41347  20682833.326    20682831.036    20682831.485
        50.000          42.0004
 126146153.177 6  98295714.79143  24004811.543    24004810.431    24004810.352
        38.000          18.0004
 119079192.017 7  92789002.82145  22660002.088    22659998.842    22660001.395
        45.000          32.0004
 13  1  1  1 46 30.0000000  0  9G11G20G01G14G30G31G32G16G23
 124320200.387 6  96872885.56743  23657334.331    23657332.182    23657333.048
        40.000          23.0004
 109850691.212 8  85597941.43246  20903878.108    20903875.130    20903876.542
        49.000          41.0004
 114241246.475 7  89019170.88346  21739374.609    21739375.515    21739373.689
        47.000          38.0004
 130960369.038 6 102046992.0004   24920917.012    24920914.097    24920912.731
        36.000           5.0004
 117897892.964 7  91868499.18645  22435214.627    22435212.470    22435212.892
        45.000          31.0004
 110880341.314 8  86400272.02346  21099823.185    21099819.440    21099822.495
        50.000          41.0004
 108635920.927 8  84651378.52447  20672715.764    20672713.347    20672714.132
        49.000          42.0004
 126002157.093 6  98183510.10143  23977410.336    23977407.411    23977408.366
        38.000          18.0004
 118977376.005 7  92709665.71045  22640627.544    22640624.057    22640626.838
        45.000          32.0004
 13  1  1  1 47  0.0000000  0  9G11G20G01G14G30G31G32G16G23
 124358001.806 6  96902341.20143  23664528.152    23664525.512    23664526.798
        41.000          22.0004
 109749285.840 8  85518924.26146  20884581.109    20884578.323    20884579.595
        50.000          41.0004
 114253072.890 7  89028386.26046  21741625.301    21741626.118    21741624.022
        47.000          38.0004
 130988510.032 5 102068919.98041  24926272.633    24926271.534    24926272.727
        35.000           6.0004
 117777599.950 7  91774764.41445  22412323.133    22412321.642    22412321.111
        45.000          31.0004
 110900336.961 8  86415853.05646  21103628.045    21103624.438    21103627.533
        49.000          41.0004
 108583114.351 8  84610230.53347  20662666.869    20662664.595    20662665.611
        50.000          42.0004
 125858178.757 6  98071319.23342  23950012.051    23950009.930    23950011.073
        38.000          17.0004
 118875656.224 7  92630403.57045  22621270.882    22621266.656    22621270.494
        46.000          33.0004
 13  1  1  1 47 30.0000000  0  9G11G20G01G14G30G31G32G16G23
 124395901.859 7  96931873.70643  23671740.480    23671738.347    23671739.200
        42.000          23.0004
 109648238.354 8  85440185.97346  20865352.349    20865349.513    20865350.803
        50.000          40.0004
 114265347.449 8  89037950.83646  21743961.389    21743961.822    21743960.093
        48.000          37.0004
 131016631.834 5 102090833.06041  24931622.790    24931621.457    24931623.907
        34.000           7.0004
 117657653.342 7  91681299.54345  22389498.318    22389496.009    22389496.599
        46.000          31.0004
 110920714.129 8  86431731.37146  21107505.387    21107502.019    21107504.886
        49.000          41.0004
 108530670.471 8  84569365.16847  20652687.017    20652684.612    20652685.426
        49.000          42.0004
 125714220.694 6  97959144.16242  23922617.989    23922615.299    23922617.472
        39.000          17.0004
 118774032.594 7  92551216.35545  22601932.953    22601928.086    22601932.080
        47.000          33.0004
 13  1  1  1 48  0.0000000  0  9G11G20G01G14G30G31G32G16G23
 124433898.705 7  96961481.61543  23678970.953    23678968.007    23678969.318
        42.000          23.0004
 109547551.867 8  85361728.98646  20846192.105    20846189.652    20846190.822
        48.000          41.0004
 114278068.667 8  89047863.48246  21746382.099    21746382.825    21746380.805
        48.000          38.0004
 131044735.147 5 102112731.67041  24936971.159    24936968.036    24936966.691
        31.000           7.0004
 117538057.009 7  91588107.62845  22366739.433    22366737.305    22366737.659
        45.000          31.0004
 110941470.957 8  86447905.52646  21111455.086    21111451.641    21111454.598
        50.000          41.0004
 108478591.411 8  84528784.08647  20642776.536    20642774.425    20642775.144
        49.000          42.0004
 125570287.319 6  97846988.31942  23895229.167    23895226.833    23895227.475
        39.000          16.0004
 118672505.748 8  92472104.55145  22582613.180    22582608.078    22582612.480
        48.000          33.0004
 13  1  1  1 48 30.0000000  0  9G11G20G01G14G30G31G32G16G23
 124471988.748 7  96991162.15743  23686219.244    23686217.519    23686218.268
        42.000          23.0004
 109447227.966 8  85283554.53046  20827101.430    20827098.271    20827100.040
        50.000          41.0004
 114291233.377 8  89058121.67646  21748886.879    21748888.148    21748885.511
        48.000          37.0004
 131072819.623 4 102134615.7054   24942316.674    24942318.316    24942314.288
        28.000           5.0004
 117418813.765 7  91495190.84145  22344048.012    22344046.364    22344046.500
        45.000          31.0004
 110962604.432 8  86464373.17946  21115476.793    21115473.270    21115476.387
        50.000          41.0004
 108426877.689 8  84488487.67847  20632935.517    20632933.705    20632934.134
        51.000          42.0004
 125426381.174 6  97734853.70543  23867843.455    23867841.967    23867842.741
        39.000          18.0004
 118571075.054 7  92393067.65645  22563311.254    22563306.102    22563309.559
        47.000          32.0004
 13  1  1  1 49  0.0000000  0  8G11G20G01G30G31G32G16G23
 124510166.879 6  97020911.35144  23693484.161    23693482.338    23693484.243
        41.000          24.0004
 109347266.355 8  85205662.37046  20808079.480    20808076.176    20808077.978
        51.000          41.0004
 114304836.924 7  89068721.83446  21751475.289    21751476.493    21751474.402
        46.000          37.0004
 117299924.382 7  91402549.80145  22321423.603    22321422.375    22321422.931
        45.000          31.0004
 110984109.849 8  86481130.64946  21119569.111    21119565.857    21119568.725
        49.000          41.0004
 108375528.232 8  84448475.11047  20623164.192    20623162.338    20623162.649
        50.000          42.0004
 125282503.129 6  97622740.94743  23840464.587    23840462.060    23840463.677
        40.000          18.0004
 118469738.244 7  92314103.93745  22544027.141    22544022.773    22544026.029
        47.000          32.0004
 13  1  1  1 49 30.0000000  0  8G11G20G01G30G31G32G16G23
 124548437.470 6  97050732.57643  23700766.586    23700763.926    23700765.533
        41.000          23.0004
 109247676.448 8  85128059.85146  20789128.550    20789124.897    20789126.902
        50.000          41.0004
 114318883.778 7  89079667.42146  21754148.120    21754149.678    21754147.167
        47.000          37.0004
 117181398.865 7  91310192.27545  22298868.910    22298867.721    22298867.702
        44.000          31.0004
 111005991.531 8  86498181.30946  21123733.165    21123729.822    21123732.462
        49.000          41.0004
 108324551.175 8  84408752.73047  20613463.623    20613461.814    20613461.764
        49.000          42.0004
 125138663.273 6  97510658.00343  23813092.387    23813090.399    23813090.562
        39.000          19.0004
 118368502.009 8  92235218.60945  22524762.896    22524758.558    22524761.337
        48.000          32.0004
 13  1  1  1 50  0.0000000  0  8G11G20G01G30G31G32G16G23
 124586795.060 7  97080621.60943  23708065.876    23708062.872    23708064.829
        42.000          23.0004
 109148457.762 8  85050746.59946  20770247.485    20770244.135    20770245.783
        50.000          41.0004
 114333368.831 7  89090954.46546  21756905.069    21756906.218    21756904.088
        47.000          38.0004
 117063237.844 7  91218118.78345  22276383.873    22276382.405    22276382.825
        45.000          31.0004
 111028244.939 8  86515521.62946  21127967.627    21127964.443    21127967.378
        48.000          41.0004
 108273945.063 8  84369319.39647  20603833.689    20603831.533    20603832.339
        49.000          42.0004
 124994862.248 6  97398605.24743  23785727.391    23785725.818    23785726.344
        39.000          19.0004
 118267363.477 7  92156409.41145  22505516.725    22505512.178    22505515.807
        47.000          32.0004
 13  1  1  1 50 30.0000000  0  8G11G20G01G30G31G32G16G23
 124625236.297 6  97110575.78343  23715380.670    23715378.329    23715380.230
        41.000          23.0004
 109049612.022 8  84973723.95246  20751437.622    20751434.471    20751436.244
        49.000          41.0004
 114348289.091 7  89102580.62746  21759744.092    21759745.431    21759743.209
        47.000          37.0004
 116945444.036 7  91126331.41645  22253968.279    22253966.934    22253967.313
        45.000          31.0004
 111050865.985 8  86533148.42046  21132272.474    21132269.112    21132271.879
        49.000          41.0004
 108223710.595 8  84330175.64947  20594274.688    20594272.410    20594273.250
        51.000          42.0004
 124851102.726 6  97286584.82543  23758371.282    23758369.165    23758370.065
        39.000          18.0004
 118166322.434 7  92077676.16545  22486289.236    22486284.577    22486287.528
        47.000          33.0004
 13  1  1  1 51  0.0000000  0  8G11G20G01G30G31G32G16G23
 124663759.665 6  97140593.98943  23722712.059    23722709.775    23722711.614
        41.000          22.0004
 108951142.407 8  84896994.39646  20732699.540    20732696.411    20732698.441
        49.000          41.0004
 114363643.297 7  89114544.93946  21762665.881    21762666.907    21762664.917
        47.000          37.0004
 116828021.736 7  91034833.56545  22231624.054    22231622.376    22231622.565
        44.000          32.0004
 111073853.943 8  86551061.12046  21136646.690    21136643.712    21136646.270
        50.000          41.0004
 108173850.205 8  84291323.40847  20584786.405    20584784.310    20584785.041
        50.000          42.0004
 124707389.349 6  97174600.39343  23731022.980    23731022.166    23731022.470
        39.000          19.0004
 118065379.960 7  91999019.71645  22467080.180    22467075.350    22467079.285
        46.000          33.0004
 13  1  1  1 51 30.0000000  0  8G11G20G01G30G31G32G16G23
 124702356.433 6  97170669.39643  23730056.774    23730053.438    23730056.078
        41.000          22.0004
 108853045.202 8  84820555.01946  20714032.224    20714029.096    20714030.695
        49.000          41.0004
 114379423.056 7  89126840.84646  21765668.791    21765669.908    21765667.352
        47.000          37.0004
 116710968.281 7  90943623.10845  22209349.399    22209348.328    22209347.868
        44.000          32.0004
 111097200.526 8  86569253.25646  21141089.434    21141086.627    21141088.963
        50.000          40.0004
 108124359.133 8  84252758.93147  20575368.721    20575366.367    20575367.154
        49.000          42.0004
 124563719.752 6  97062650.04443  23703684.801    23703681.515    23703682.931
        40.000          19.0004
 117964530.158 7  91920435.46645  22447889.052    22447885.054    22447888.098
        47.000          33.0004
 13  1  1  1 52  0.0000000  0  8G11G20G01G30G31G32G16G23
 124741028.827 7  97200803.73943  23737416.275    23737412.477    23737415.235
        42.000          22.0004
 108755327.682 8  84744411.50846  20695437.426    20695434.131    20695436.041
        50.000          41.0004
 114395630.851 7  89139470.29246  21768753.162    21768753.836    21768751.978
        47.000          37.0004
 116594291.810 7  90852706.39645  22187146.699    22187144.684    22187145.725
        45.000          32.0004
 111120907.934 8  86587726.56546  21145601.179    21145598.009    21145600.584
        50.000          41.0004
 108075243.553 8  84214487.05147  20566022.318    20566019.811    20566021.047
        49.000          42.0004
 124420101.626 6  96950739.83743  23676354.791    23676352.928    23676353.628
        39.000          20.0004
 117863778.079 7  91841927.38145  22428716.526    22428712.203    22428715.955
        46.000          32.0004
 13  1  1  1 52 30.0000000  0  8G11G20G01G30G31G32G16G23
 124779774.009 7  97230994.77043  23744789.284    23744786.168    23744787.859
        42.000          23.0004
 108657991.675 8  84668565.28246  20676914.937    20676911.458    20676913.539
        50.000          41.0004
 114412263.667 7  89152430.92746  21771918.275    21771919.362    21771916.999
        46.000          37.0004
 116477994.884 7  90762085.43045  22165016.078    22165015.180    22165015.143
        46.000          32.0004
 111144973.326 8  86606478.82046  21150180.571    21150176.971    21150180.112
        50.000          41.0004
 108026504.089 8  84176508.25047  20556747.700    20556745.375    20556746.142
        51.000          42.0004
 124276538.369 6  96838872.35243  23649035.588    23649032.104    23649034.119
        39.000          20.0004
 117763123.260 7  91763495.08845  22409562.339    22409558.559    22409562.178
        47.000          32.0004
 13  1  1  1 53  0.0000000  0  8G11G20G01G30G31G32G16G23
 124818584.354 7  97261236.58243  23752174.356    23752171.167    23752173.077
        42.000          23.0004
 108561034.785 8  84593014.46846  20658464.357    20658461.154    20658462.923
        50.000          41.0004
 114429314.430 7  89165717.22846  21775162.866    21775163.926    21775161.701
        45.000          36.0004
 116362076.192 7  90671759.21345  22142957.342    22142955.586    22142955.506
        45.000          32.0004
 111169389.578 8  86625504.47046  21154826.779    21154823.362    21154826.466
        49.000          40.0004
 107978137.389 8  84138819.91147  20547543.579    20547541.128    20547542.057
        50.000          43.0004
 124133028.209 6  96727046.24743  23621727.506    23621724.504    23621725.873
        39.000          21.0004
 117662560.702 7  91685134.67845  22390426.432    22390421.586    22390425.117
        47.000          33.0004
 13  1  1  1 53 30.0000000  0  8G11G20G01G30G31G32G16G23
 124857459.842 6  97291529.16043  23759571.426    23759569.336    23759570.620
        41.000          22.0004
 108464461.738 8  84517762.76046  20640086.917    20640083.916    20640085.614
        50.000          41.0004
 114446783.220 7  89179329.26946  21778486.605    21778487.737    21778485.714
        47.000          36.0004
 116246541.662 7  90581732.34545  22120971.895    22120971.039    22120970.935
        46.000          33.0004
 111194156.945 8  86644803.71746  21159540.254    21159536.597    21159539.360
        49.000          40.0004
 107930147.221 8  84101424.96647  20538411.539    20538409.140    20538409.934
        51.000          42.0004
 123989577.391 6  96615266.39743  23594428.266    23594426.750    23594427.372
        39.000          20.0004
 117562093.144 7  91606848.30345  22371308.186    22371303.690    22371307.114
        47.000          33.0004
 13  1  1  1 54  0.0000000  0  8G11G20G01G30G31G32G16G23
 124896397.355 6  97321870.06443  23766982.206    23766979.705    23766980.670
        41.000          22.0004
 108368274.315 8  84442811.52846  20621783.075    20621780.147    20621781.626
        49.000          41.0004
 114464666.987 7  89193264.66546  21781889.531    21781890.838    21781889.076
        46.000          36.0004
 116131393.651 7  90492006.66645  22099060.456    22099059.093    22099058.857
        45.000          33.0004
 111219272.214 8  86664374.06246  21164319.068    21164315.888    21164318.855
        50.000          41.0004
 107882534.271 8  84064323.96547  20529350.659    20529348.459    20529349.452
        50.000          42.0004
 123846188.495 6  96503534.82243  23567141.917    23567139.172    23567140.946
        38.000          20.0004
 117461720.257 7  91528635.69845  22352207.781    22352203.621    22352206.794
        47.000          34.0004
 13  1  1  1 54 30.0000000  0  8G11G20G01G30G31G32G16G23
 124935395.571 6  97352258.27743  23774402.934    23774401.240    23774402.528
        41.000          22.0004
 108272476.066 8  84368163.55546  20603553.291    20603550.334    20603551.989
        49.000          41.0004
 114482964.624 7  89207522.54846  21785371.997    21785372.515    21785371.213
        46.000          36.0004
 116016636.946 7  90402585.88245  22077222.626    22077221.014    22077221.066
        45.000          33.0004
 111244734.354 8  86684214.69646  21169163.982    21169161.200    21169163.565
        48.000          40.0004
 107835301.042 8  84027518.84647  20520362.803    20520360.521    20520361.306
        51.000          42.0004
 123702866.309 6  96391855.19443  23539869.703    23539866.841    23539868.274
        40.000          19.0004
 117361443.228 7  91450497.78345  22333125.393    22333121.418    22333124.691
        46.000          34.0004
 13  1  1  1 55  0.0000000  0  8G11G20G01G30G31G32G16G23
 126549870.889 6  98610290.97443  24081626.822    24081625.111    24081625.415
        40.000          22.0004
 109752492.597 8  85521423.20647  20885191.140    20885188.255    20885189.804
        50.000          42.0004
 116077093.299 8  90449700.72846  22088724.963    22088725.347    22088723.911
        48.000          36.0004
 117477698.520 7  91541075.44345  22355253.531    22355251.584    22355252.283
        46.000          33.0004
 112845960.531 8  87931923.40046  21473867.324    21473864.208    21473866.685
        49.000          40.0004
 109363870.712 8  85218612.07947  20811240.110    20811237.692    20811238.566
        51.000          43.0004
 125135039.560 6  97507834.38643  23812402.387    23812400.016    23812401.536
        40.000          19.0004
 118836686.170 8  92600037.76345  22613855.142    22613850.435    22613853.950
        48.000          34.0004
 13  1  1  1 55 30.0000000  0  8G11G20G01G30G31G32G16G23
 126588980.747 6  98640766.19243  24089068.953    24089066.908    24089067.686
        40.000          21.0004
 109657477.657 8  85447385.60647  20867110.266    20867107.493    20867109.015
        49.000          42.0004
 116096209.269 7  90464596.28546  22092362.452    22092363.664    22092361.516
        46.000          37.0004
 117363731.911 7  91452270.31145  22333566.463    22333564.735    22333564.615
        46.000          32.0004
 112872107.552 8  87952297.70246  21478843.135    21478839.729    21478842.607
        49.000          40.0004
 109317398.808 8  85182400.21147  20802396.521    20802394.678    20802395.077
        50.000          42.0004
 124991859.701 6  97396265.66343  23785156.784    23785153.076    23785154.804
        40.000          20.0004
 118736599.697 8  92522048.33045  22594809.935    22594804.320    22594808.729
        48.000          34.0004
 13  1  1  1 56  0.0000000  0  8G11G20G01G30G31G32G16G23
 126628141.899 6  98671281.37943  24096522.257    24096519.171    24096521.287
        41.000          21.0004
 109562857.094 8  85373655.30547  20849104.649    20849102.167    20849103.236
        51.000          42.0004
 116115730.207 7  90479807.38546  22096076.895    22096078.585    22096076.079
        46.000          37.0004
 117250164.538 7  91363776.26445  22311955.306    22311953.681    22311953.584
        46.000          33.0004
 112898593.168 8  87972935.84746  21483883.360    21483879.882    21483882.639
        49.000          40.0004
 109271308.862 8  85146485.96447  20793625.933    20793623.865    20793624.564
        49.000          43.0004
 124848755.508 6  97284755.91743  23757925.063    23757923.281    23757923.775
        41.000          21.0004
 118636608.118 8  92444132.84845  22575781.873    22575776.554    22575780.400
        48.000          33.0004
 13  1  1  1 56 30.0000000  0  8G11G20G01G30G31G32G16G23
 126667353.084 6  98701835.53243  24103983.559    24103981.078    24103982.441
        40.000          21.0004
 109468634.464 8  85300235.08347  20831174.568    20831172.089    20831173.200
        50.000          42.0004
 116135654.594 7  90495332.87946  22099868.613    22099869.538    22099867.733
        47.000          36.0004
 117137000.775 7  91275596.74245  22290420.685    22290419.002    22290419.018
        46.000          33.0004
 112925415.365 8  87993836.25946  21488987.241    21488984.038    21488986.883
        48.000          40.0004
 109225603.147 8  85110871.11447  20784928.261    20784926.229    20784927.021
        50.000          42.0004
 124705731.749 6  97173308.81843  23730708.482    23730705.547    23730707.032
        40.000          22.0004
 118536712.546 7  92366292.17045  22556772.139    22556766.870    22556770.819
        46.000          33.0004
 13  1  1  1 57  0.0000000  0  8G11G20G01G30G31G32G16G23
 126706612.388 6  98732427.17043  24111453.493    24111452.091    24111452.651
        40.000          21.0004
 109374812.900 8  85227127.37447  20813321.302    20813318.277    20813319.710
        49.000          42.0004
 116155980.708 7  90511171.40246  22103737.205    22103737.726    22103736.335
        46.000          36.0004
 117024244.589 7  91187734.81545  22268963.578    22268962.016    22268962.243
        45.000          33.0004
 112952572.789 8  88014997.88546  21494155.366    21494151.878    21494155.053
        50.000          40.0004
 109180283.668 8  85075557.23347  20776304.371    20776302.035    20776302.712
        50.000          42.0004
 124562792.466 6  97061927.56943  23703507.855    23703505.404    23703507.521
        40.000          22.0004
 118436913.798 7  92288526.94145  22537780.756    22537775.961    22537779.656
        46.000          33.0004
 13  1  1  1 57 30.0000000  0  8G11G20G01G30G31G32G16G23
 126745916.829 6  98763053.98943  24118933.130    24118930.250    24118932.917
        40.000          21.0004
 109281393.745 8  85154333.23847  20795544.121    20795541.183    20795542.499
        50.000          42.0004
 116176705.555 7  90527320.63046  22107680.816    22107681.437    22107680.123
        47.000          36.0004
 116911898.527 7  91100192.47545  22247585.218    22247583.492    22247583.276
        46.000          33.0004
 112980062.506 8  88036418.44546  21499386.435    21499383.067    21499385.926
        50.000          41.0004
 109135351.141 8  85040544.87147  20767754.170    20767751.801    20767752.463
        50.000          42.0004
 124419940.339 6  96950614.21443  23676324.375    23676322.094    23676323.041
        40.000          21.0004
 118337211.651 7  92210836.98345  22518807.714    22518803.106    22518807.578
        46.000          33.0004
 13  1  1  1 58  0.0000000  0  8G11G20G01G30G31G32G16G23
 126785263.252 6  98793713.52243  24126420.278    24126417.275    24126419.889
        40.000          21.0004
 109188378.882 8  85081854.13647  20777843.892    20777840.971    20777842.534
        51.000          42.0004
 116197826.107 7  90543778.18246  22111699.836    22111700.525    22111698.345
        46.000          36.0004
 116799965.455 7  91012971.92845  22226284.706    22226283.860    22226282.951
        46.000          33.0004
 113007881.890 8  88058095.88446  21504680.214    21504676.901    21504679.621
        50.000          40.0004
 109090806.357 8  85005834.64547  20759277.226    20759275.280    20759276.004
        50.000          42.0004
 124277178.574 6  96839371.27643  23649156.978    23649154.773    23649155.564
        40.000          21.0004
 118237605.948 8  92133222.18345  22499853.700    22499849.147    22499853.204
        48.000          34.0004
 13  1  1  1 58 30.0000000  0  8G11G20G01G30G31G32G16G23
 126824649.365 6  98824403.97643  24133915.953    24133913.986    24133914.758
        40.000          21.0004
 109095771.113 8  85009692.24847  20760221.294    20760218.157    20760219.880
        50.000          42.0004
 116219340.065 7  90560542.29146  22115793.614    22115794.354    22115792.447
        46.000          36.0004
 116688448.864 7  90926075.92145  22205063.239    22205062.423    22205062.029
        45.000          33.0004
 113036028.424 8  88080028.24646  21510036.369    21510032.778    21510035.701
        49.000          40.0004
 109046650.537 8  84971427.51147  20750874.926    20750872.624    20750873.379
        50.000          42.0004
 124134511.189 6  96728201.91543  23622008.693    23622006.883    23622007.665
        40.000          21.0004
 118138096.820 7  92055682.63645  22480917.267    22480912.498    22480916.671
        47.000          34.0004
 13  1  1  1 59  0.0000000  0  8G11G20G01G30G31G32G16G23
 126864072.149 6  98855123.02443  24141417.845    24141414.835    24141417.573
        41.000          21.0004
 109003571.978 8  84937848.76647  20742676.325    20742673.277    20742674.947
        50.000          42.0004
 116241244.549 7  90577610.70746  22119962.225    22119962.416    22119960.965
        47.000          36.0004
 116577351.193 7  90839506.35945  22183922.265    22183920.720    22183921.074
        46.000          33.0004
 113064499.622 8  88102213.59646  21515454.418    21515450.872    21515453.852
        50.000          40.0004
 109002884.690 8  84937324.25147  20742546.488    20742544.437    20742545.166
        50.000          43.0004
 123991941.007 6  96617108.27543  23594878.714    23594875.813    23594877.412
        41.000          21.0004
 118038683.948 8  91978218.08445  22462000.339    22461995.087    22461999.317
        48.000          34.0004
 13  1  1  1 59 30.0000000  0  8G11G20G01G30G31G32G16G23
 126903529.195 6  98885868.78443  24148925.227    24148923.396    24148923.686
        39.000          21.0004
 108911783.994 8  84866325.66747  20725209.767    20725206.502    20725208.366
        49.000          42.0004
 116263537.055 7  90594981.49846  22124204.159    22124204.695    22124203.264
        46.000          36.0004
 116466675.857 7  90753265.86145  22162861.576    22162859.872    22162860.498
        46.000          33.0004
 113093293.117 8  88124650.08246  21520933.584    21520930.017    21520932.945
        49.000          40.0004
 108959510.022 8  84903525.81747  20734292.639    20734290.589    20734290.918
        49.000          42.0004
 123849471.622 6  96506093.21443  23567767.753    23567765.629    23567766.009
        40.000          21.0004
 117939367.834 7  91900828.93645  22443101.376    22443096.018    22443099.951
        47.000          34.0004
 13  1  1  2  0  0.0000000  0  8G11G20G01G30G31G32G16G23
 126943017.867 6  98916639.14643  24156439.920    24156439.503    24156438.812
        39.000          20.0004
 108820408.947 8  84795124.33547  20707821.647    20707818.462    20707820.302
        50.000          42.0004
 116286214.700 7  90612652.37245  22128519.950    22128520.566    22128518.691
        46.000          35.0004
 116356425.738 7  90667356.70945  22141882.000    22141879.735    22141880.860
        46.000          33.0004
 113122406.310 8  88147335.69046  21526473.776    21526469.920    21526473.329
        50.000          40.0004
 108916527.263 8  84870032.74547  20726113.402    20726111.144    20726112.058
        50.000          42.0004
 123707106.352 6  96395159.24343  23540676.567    23540673.259    23540675.983
        40.000          22.0004
 117840148.256 8  91823515.01245  22424220.405    22424215.035    22424219.145
        49.000          34.0004
 13  1  1  2  0 30.0000000  0  8G11G20G01G30G31G32G16G23
 126982535.091 6  98947431.77043  24163960.964    24163958.393    24163959.708
        39.000          20.0004
 108729448.815 8  84724246.31147  20690512.854    20690509.307    20690511.250
        50.000          42.0004
 116309274.561 7  90630621.08045  22132907.165    22132908.478    22132906.230
        45.000          35.0004
 116246603.445 7  90581780.92345  22120983.265    22120981.823    22120982.339
        46.000          33.0004
 113151836.103 8  88170268.00246  21532073.585    21532070.210    21532073.385
        49.000          39.0004
 108873937.365 8  84836845.79847  20718008.473    20718006.460    20718007.008
        51.000          42.0004
 123564848.472 6  96284308.99743  23513605.181    23513603.522    23513604.049
        40.000          22.0004
 117741025.043 7  91746276.17745  22405357.243    22405352.625    22405356.651
        47.000          34.0004
 13  1  1  2  1  0.0000000  0  8G11G20G01G30G31G32G16G23
 127022075.082 6  98978242.12243  24171484.248    24171481.872    24171483.631
        40.000          20.0004
 108638902.719 8  84653690.91547  20673282.141    20673278.935    20673280.983
        50.000          42.0004
 116332710.726 7  90648883.01945  22137367.437    22137367.987    22137366.197
        46.000          35.0004
 116137208.985 7  90496538.49845  22100166.375    22100164.491    22100165.026
        46.000          34.0004
 113181576.934 8  88193442.67546  21537733.426    21537729.848    21537733.162
        48.000          40.0004
 108831738.062 8  84803963.22147  20709977.917    20709976.058    20709976.429
        50.000          42.0004
 123422697.797 6  96173542.25243  23486554.621    23486553.214    23486553.184
        40.000          23.0004
 117641994.772 8  91669109.74845  22386512.819    22386508.000    22386511.708
        48.000          34.0004
 13  1  1  2  1 30.0000000  0  8G11G20G01G30G31G32G16G23
 127061636.091 6  99009068.87943  24179012.367    24179010.392    24179012.585
        40.000          20.0004
 108548773.077 8  84583460.02847  20656131.058    20656127.786    20656129.635
        51.000          42.0004
 116356521.359 7  90667436.74645  22141898.656    22141899.343    22141897.214
        46.000          35.0004
 116028246.003 7  90411632.30545  22079431.356    22079429.216    22079430.648
        47.000          33.0004
 113211627.248 8  88216858.49846  21543451.727    21543447.992    21543451.154
        49.000          39.0004
 108789931.294 8  84771386.51847  20702023.076    20702020.798    20702021.422
        50.000          42.0004
 123280659.245 6  96062862.89143  23459526.298    23459525.034    23459525.332
        41.000          23.0004
 117543058.749 7  91592016.76245  22367685.930    22367680.786    22367684.993
        47.000          35.0004
 13  1  1  2  2  0.0000000  0  8G11G20G01G30G31G32G16G23
 127101214.865 6  99039909.48143  24186545.178    24186541.410    24186545.001
        40.000          19.0004
 108459061.564 8  84513554.95347  20639059.160    20639056.078    20639057.997
        50.000          42.0004
 116380703.114 7  90686279.67045  22146499.977    22146501.384    22146499.041
        45.000          35.0004
 115919716.916 7  90327064.20045  22058778.890    22058776.915    22058777.734
        46.000          33.0004
 113241984.138 8  88240513.20546  21549228.637    21549224.713    21549227.852
        49.000          39.0004
 108748517.438 8  84739115.97647  20694141.997    20694139.993    20694140.526
        51.000          42.0004
 123138734.937 6  95952272.52743  23432519.264    23432516.928    23432519.115
        41.000          23.0004
 117444216.370 7  91514996.76445  22348876.739    22348872.002    22348875.236
        47.000          35.0004
 13  1  1  2  2 30.0000000  0  8G11G20G01G30G31G32G16G23
 127140809.816 6  99070762.68143  24194079.403    24194077.362    24194078.081
        40.000          20.0004
 108369771.519 8  84443978.29947  20622067.837    20622065.076    20622066.484
        48.000          42.0004
 116405254.372 7  90705410.50045  22151171.836    22151173.337    22151170.949
        46.000          35.0004
 115811625.847 7  90242837.41545  22038209.588    22038207.839    22038208.562
        46.000          33.0004
 113272645.671 8  88264405.30246  21555063.263    21555059.804    21555062.186
        48.000          39.0004
 108707498.602 8  84707153.24647  20686336.280    20686334.379    20686334.817
        49.000          42.0004
 122996929.312 6  95841774.68844  23405534.007    23405532.610    23405532.649
        41.000          24.0004
 117345468.526 8  91438050.42745  22330085.524    22330080.802    22330084.523
        48.000          34.0004
 13  1  1  2  3  0.0000000  0  8G11G20G01G30G31G32G16G23
 127180416.093 6  99101624.69443  24201616.638    24201613.700    24201615.253
        40.000          20.0004
 108280902.595 8  84374729.78447  20605156.782    20605153.630    20605155.213
        49.000          42.0004
 116430169.990 7  90724825.24946  22155913.165    22155914.369    22155912.212
        46.000          36.0004
 115703973.424 7  90158952.43345  22017724.633    22017723.335    22017723.484
        47.000          34.0004
 113303607.239 8  88288531.19446  21560954.980    21560951.756    21560954.193
        49.000          39.0004
 108666873.376 8  84675497.20247  20678605.733    20678603.669    20678604.223
        50.000          42.0004
 122855244.069 6  95731370.62344  23378571.830    23378570.715    23378570.398
        41.000          24.0004
 117246813.157 8  91361176.14345  22311311.568    22311306.664    22311310.895
        48.000          34.0004
 13  1  1  2  3 30.0000000  0  8G11G20G01G30G31G32G16G23
 127220030.995 6  99132493.43843  24209155.025    24209152.363    24209153.234
        41.000          20.0004
 108192456.826 8  84305811.00847  20588326.533    20588323.420    20588324.808
        49.000          43.0004
 116455447.170 7  90744521.73845  22160723.254    22160724.281    22160722.377
        46.000          35.0004
 115596762.267 7  90075411.29345  21997322.984    21997321.358    21997321.512
        46.000          34.0004
 113334866.412 8  88312888.98646  21566903.443    21566900.118    21566902.616
        49.000          39.0004
 108626642.624 8  84644148.55147  20670950.025    20670948.008    20670948.632
        51.000          42.0004
 122713682.104 6  95621062.60844  23351633.301    23351631.298    23351632.646
        41.000          24.0004
 117148250.310 8  91284373.94645  22292556.191    22292551.399    22292555.071
        48.000          34.0004
 13  1  1  2  4  0.0000000  0  8G11G20G01G30G31G32G16G23
 127259652.303 6  99163367.18443  24216693.970    24216691.988    24216692.905
        41.000          20.0004
 108104436.645 8  84237223.86047  20571576.505    20571573.557    20571574.893
        49.000          43.0004
 116481083.417 7  90764498.03345  22165601.577    22165602.488    22165600.125
        45.000          35.0004
 115489995.770 7  89992216.64745  21977005.814    21977003.558    21977004.157
        47.000          34.0004
 113366420.678 8  88337476.72546  21572907.888    21572904.590    21572907.220
        49.000          39.0004
 108586807.748 8  84613108.37947  20663369.595    20663367.590    20663368.170
        50.000          42.0004
 122572247.474 7  95510853.82744  23324719.530    23324717.358    23324718.186
        42.000          24.0004
 117049780.109 8  91207643.94445  22273817.591    22273812.941    22273816.420
        48.000          34.0004
 13  1  1  2  4 30.0000000  0  8G11G20G01G30G31G32G16G23
 127299277.505 6  99194243.93543  24224234.290    24224231.768    24224233.351
        39.000          20.0004
 108016844.261 8  84168970.05347  20554908.269    20554905.146    20554906.508
        50.000          43.0004
 116507076.438 7  90784752.31345  22170547.722    22170548.894    22170546.866
        45.000          34.0004
 115383677.263 7  89909371.08345  21956774.254    21956772.164    21956772.951
        47.000          34.0004
 113398268.194 8  88362292.96046  21578968.048    21578965.081    21578967.591
        48.000          39.0004
 108547370.015 8  84582377.66547  20655865.033    20655862.649    20655863.837
        49.000          42.0004
 122430943.746 7  95400747.03844  23297830.663    23297828.182    23297829.844
        43.000          25.0004
 116951403.341 7  91130986.74845  22255096.942    22255092.186    22255096.330
        46.000          34.0004
 13  1  1  2  5  0.0000000  0  8G11G20G01G30G31G32G16G23
 127338906.065 6  99225123.32243  24231775.506    24231773.568    24231774.132
        39.000          20.0004
 107929683.522 8  84101052.59247  20538322.063    20538318.787    20538320.738
        50.000          42.0004
 116533425.043 7  90805283.68145  22175561.909    22175563.376    22175560.664
        46.000          35.0004
 115277811.202 7  89826878.08945  21936628.422    21936626.536    21936627.233
        47.000          34.0004
 113430408.020 8  88387336.97346  21585084.355    21585081.191    21585084.227
        48.000          39.0004
 108508332.143 8  84551958.53547  20648436.509    20648433.858    20648435.047
        50.000          42.0004
 122289776.086 7  95290746.29244  23270967.037    23270964.263    23270965.930
        42.000          25.0004
 116853121.451 8  91054403.48745  22236394.488    22236389.810    22236393.856
        48.000          34.0004
 13  1  1  2  5 30.0000000  0  8G11G20G01G30G31G32G16G23
 127378534.647 6  99256002.71243  24239316.611    24239314.758    24239315.883
        40.000          20.0004
 107842955.764 8  84033472.51847  20521818.372    20521815.065    20521816.802
        49.000          42.0004
 116560125.739 7  90826089.40545  22180642.801    22180643.670    22180641.554
        46.000          34.0004
 115172399.839 7  89744739.40845  21916569.206    21916567.071    21916567.882
        46.000          34.0004
 113462837.104 7  88412606.37746  21591255.661    21591252.250    21591255.058
        47.000          39.0004
 108469694.224 8  84521851.06247  20641083.984    20641081.586    20641082.779
        50.000          42.0004
 122148747.412 7  95180853.82044  23244130.506    23244128.081    23244129.653
        43.000          24.0004
 116754934.114 8  90977893.89945  22217710.316    22217705.196    22217709.251
        48.000          35.0004
 13  1  1  2  6  0.0000000  0  8G11G20G01G30G31G32G16G23
 127418160.986 6  99286880.33743  24246858.491    24246855.080    24246856.883
        40.000          19.0004
 107756663.800 8  83966232.02847  20505397.561    20505394.459    20505395.978
        49.000          43.0004
 116587176.506 7  90847167.91145  22185790.843    22185791.474    22185789.435
        45.000          33.0004
 115067446.701 7  89662957.77245  21896597.351    21896595.488    21896595.108
        46.000          34.0004
 113495553.443 8  88438099.63046  21597480.973    21597477.711    21597480.712
        48.000          39.0004
 108431457.954 8  84492056.56447  20633807.886    20633805.397    20633806.393
        50.000          43.0004
 122007861.597 7  95071072.68244  23217320.141    23217318.865    23217318.375
        42.000          25.0004
 116656842.037 8  90901458.53745  22199044.175    22199039.369    22199042.855
        49.000          35.0004
 13  1  1  2  6 30.0000000  0  8G11G20G01G30G31G32G16G23
 127457781.038 6  99317753.11343  24254396.603    24254394.732    24254395.655
        40.000          20.0004
 107670807.615 8  83899331.10347  20489059.851    20489056.338    20489058.233
        48.000          42.0004
 116614572.658 7  90868515.56345  22191003.516    22191005.360    22191002.610
        45.000          34.0004
 114962952.849 7  89581534.02945  21876712.824    21876710.865    21876711.835
        47.000          35.0004
 113528552.880 8  88463813.47546  21603760.270    21603757.371    21603759.870
        48.000          39.0004
 108393622.439 8  84462574.33447  20626607.843    20626605.641    20626606.401
        50.000          42.0004
 121867120.508 7  94961404.29144  23190538.568    23190536.143    23190537.713
        42.000          25.0004
 116558843.440 8  90825096.01145  22180395.306    22180390.705    22180394.268
        48.000          35.0004
 13  1  1  2  7  0.0000000  0  8G11G20G01G30G31G32G16G23
 127497394.165 6  99348620.47743  24261934.727    24261932.409    24261933.264
        39.000          20.0004
 107585391.122 8  83832772.80147  20472805.379    20472802.229    20472804.000
        49.000          42.0004
 116642313.407 7  90890131.71145  22196282.847    22196284.295    22196282.088
        45.000          34.0004
 114858923.091 8  89500471.91645  21856916.513    21856914.816    21856914.924
        48.000          35.0004
 113561834.653 8  88489747.31146  21610093.858    21610090.355    21610093.222
        48.000          38.0004
 108356190.574 8  84433406.63747  20619484.598    20619482.723    20619483.288
        49.000          42.0004
 121726529.307 7  94851852.71944  23163784.903    23163783.466    23163783.439
        42.000          25.0004
 116460940.616 8  90748808.14145  22161764.682    22161760.614    22161764.032
        48.000          35.0004
 13  1  1  2  7 30.0000000  0  8G11G20G01G30G31G32G16G23
 127536993.713 6  99379477.25143  24269470.908    24269468.552    24269469.469
        39.000          19.0004
 107500412.544 8  83766555.73047  20456634.776    20456631.584    20456633.319
        50.000          43.0004
 116670391.958 7  90912011.08245  22201625.980    22201627.013    22201625.061
        45.000          34.0004
 114755356.289 7  89419770.54845  21837207.764    21837206.553    21837206.705
        47.000          35.0004
 113595392.473 8  88515896.25446  21616479.656    21616476.232    21616478.894
        49.000          38.0004
 108319159.306 8  84404551.08647  20612438.220    20612435.938    20612436.788
        50.000          42.0004
 121586087.800 6  94742417.78044  23137059.512    23137058.223    23137057.739
        41.000          24.0004
 116363129.449 8  90672591.66445  22143152.707    22143147.734    22143151.669
        48.000          35.0004
 13  1  1  2  8  0.0000000  0  8G11G20G01G30G31G32G16G23
 127576578.597 6  99410322.60443  24277003.131    24277001.098    24277002.880
        39.000          19.0004
 107415875.317 8  83700682.56947  20440547.792    20440544.396    20440546.305
        51.000          42.0004
 116698806.650 7  90934152.38145  22207033.269    22207033.976    22207032.382
        45.000          34.0004
 114652256.137 8  89339432.78445  21817589.144    21817587.001    21817587.778
        48.000          35.0004
 113629225.196 8  88542259.40446  21622918.053    21622914.839    21622917.647
        49.000          39.0004
 108282530.659 8  84376009.28447  20605467.775    20605465.709    20605466.198
        50.000          42.0004
 121445799.989 6  94633102.61343  23110362.858    23110360.738    23110361.468
        40.000          23.0004
 116265411.470 8  90596447.81545  22124557.353    22124552.450    22124556.434
        48.000          35.0004
 13  1  1  2  8 30.0000000  0  8G11G20G01G30G31G32G16G23
 127616147.994 6  99441155.87543  24284533.101    24284530.249    24284532.571
        39.000          19.0004
 107331782.835 8  83635155.96247  20424545.217    20424542.248    20424543.870
        50.000          42.0004
 116727556.378 7  90956554.76345  22212503.444    22212505.218    22212502.461
        44.000          34.0004
 114549627.643 7  89259462.55145  21798059.677    21798057.389    21798058.104
        47.000          35.0004
 113663331.836 8  88568836.00046  21629408.236    21629404.967    21629408.074
        48.000          39.0004
 108246307.251 8  84347783.24447  20598574.434    20598572.574    20598573.050
        50.000          42.0004
 121305671.621 6  94523911.68143  23083696.528    23083695.449    23083695.002
        39.000          23.0004
 116167788.568 8  90520378.05345  22105980.098    22105975.442    22105979.370
        48.000          35.0004
 13  1  1  2  9  0.0000000  0  8G11G20G01G30G31G32G16G23
 127655698.053 5  99471974.10243  24292059.453    24292055.159    24292057.275
        35.000          19.0004
 107248136.132 6  83569976.71146  20408628.402    20408624.954    20408626.832
        41.000          38.0004
 116756637.443 6  90979215.29745  22218038.024    22218039.372    22218037.066
        36.000          34.0004
 114447472.427 6  89179861.08045  21778620.469    21778618.569    21778618.574
        38.000          33.0004
 113697709.158 7  88595623.51145  21635950.371    21635946.640    21635949.659
        42.000          35.0004
 108210489.001 7  84319872.90346  20591758.660    20591756.453    20591757.177
        44.000          37.0004
 121165705.441 6  94414847.11343  23057062.485    23057060.678    23057060.809
        36.000          22.0004
 116070259.946 6  90444381.75345  22087421.300    22087415.764    22087420.347
        37.000          33.0004
 13  1  1  2  9 30.0000000  0  8G11G20G01G30G31G32G16G23
 127695226.005 6  99502775.12743  24299581.481    24299579.012    24299579.317
        39.000          18.0004
 107164936.758 8  83505146.03147  20392796.022    20392792.631    20392794.632
        49.000          43.0004
 116786046.476 7  91002131.39645  22223634.397    22223635.668    22223633.339
        45.000          34.0004
 114345792.788 8  89100630.20845  21759271.015    21759268.491    21759269.607
        48.000          35.0004
 113732354.112 8  88622619.58246  21642542.599    21642539.367    21642542.055
        49.000          38.0004
 108175076.382 8  84292278.65047  20585019.662    20585017.707    20585018.307
        50.000          42.0004
 121025904.141 6  94305911.01643  23030459.394    23030457.084    23030458.681
        40.000          22.0004
 115972825.061 8  90368458.50745  22068879.515    22068874.716    22068878.592
        48.000          35.0004
 13  1  1  2 10  0.0000000  0  8G11G20G01G30G31G32G16G23
 127734730.563 6  99533557.88043  24307099.501    24307096.817    24307098.035
        39.000          19.0004
 107082187.881 8  83440666.37947  20377049.435    20377045.966    20377047.938
        50.000          43.0004
 116815781.957 7  91025301.89245  22229292.658    22229293.492    22229292.584
        44.000          33.0004
 114244592.835 7  89021773.13645  21740013.175    21740010.938    21740011.666
        47.000          35.0004
 113767265.907 8  88649823.56846  21649186.744    21649182.716    21649185.941
        49.000          38.0004
 108140071.497 8  84265002.10247  20578358.633    20578356.756    20578357.094
        49.000          42.0004
 120886272.731 6  94197107.32943  23003889.261    23003887.129    23003887.884
        41.000          22.0004
 115875485.602 8  90292609.59845  22050356.731    22050351.173    22050355.897
        49.000          35.0004
 13  1  1  2 10 30.0000000  0  8G11G20G01G30G31G32G16G23
 127774209.758 6  99564320.89643  24314610.959    24314608.645    24314610.026
        38.000          19.0004
 106999892.064 8  83376539.77247  20361389.001    20361385.744    20361387.202
        49.000          43.0004
 116845841.291 7  91048724.73445  22235012.675    22235014.139    22235011.341
        45.000          33.0004
 114143875.563 7  88943292.15545  21720847.222    21720845.106    21720845.627
        47.000          34.0004
 113802441.676 8  88677233.25446  21655880.370    21655876.291    21655879.636
        49.000          38.0004
 108105475.550 8  84238044.20947  20571775.232    20571773.234    20571773.842
        49.000          42.0004
 120746814.579 7  94088438.63644  22977351.596    22977349.418    22977350.046
        42.000          24.0004
 115778241.993 8  90216835.37345  22031851.710    22031846.457    22031850.959
        48.000          35.0004
 13  1  1  2 11  0.0000000  0  8G11G20G01G30G31G32G16G23
 127813662.326 6  99595063.13943  24322119.386    24322115.734    24322118.082
        39.000          18.0004
 106918052.130 8  83312768.39047  20345814.992    20345812.012    20345813.606
        51.000          43.0004
 116876222.809 7  91072398.61345  22240794.668    22240795.237    22240793.205
        45.000          33.0004
 114043644.799 7  88865190.28145  21701773.569    21701772.046    21701772.254
        47.000          35.0004
 113837880.484 8  88704847.89546  21662624.190    21662620.411    21662623.300
        49.000          38.0004
 108071290.390 8  84211406.41147  20565269.880    20565267.968    20565268.378
        49.000          42.0004
 120607534.235 7  93979908.50844  22950847.427    22950845.200    22950845.853
        43.000          25.0004
 115681095.160 8  90141136.56845  22013365.565    22013360.257    22013364.670
        48.000          35.0004
 13  1  1  2 11 30.0000000  0  8G11G20G01G30G31G32G16G23
 127853084.865 6  99625781.99343  24329620.144    24329617.670    24329619.482
        38.000          18.0004
 106836669.253 8  83249353.16547  20330328.167    20330325.447    20330327.096
        50.000          43.0004
 116906922.952 7  91096320.79545  22246636.805    22246637.054    22246635.589
        44.000          33.0004
 113943902.685 7  88787469.17645  21682793.474    21682791.901    21682792.074
        46.000          35.0004
 113873579.153 8  88732665.03946  21669417.107    21669414.048    21669416.590
        48.000          38.0004
 108037516.281 8  84185088.92147  20558842.942    20558841.001    20558841.376
        50.000          42.0004
 120468434.967 7  93871519.50144  22924377.183    22924374.314    22924376.028
        43.000          25.0004
 115584044.998 8  90065513.08546  21994897.411    21994892.084    21994896.437
        49.000          36.0004
 13  1  1  2 12  0.0000000  0  8G11G20G01G30G31G32G16G23
 127892476.164 6  99656476.49843  24337116.275    24337114.033    24337115.497
        38.000          18.0004
 106755746.984 8  83186296.84447  20314929.508    20314926.198    20314928.008
        50.000          43.0004
 116937940.272 7  91120490.12245  22252538.767    22252539.992    22252538.158
        45.000          33.0004
 113844653.221 8  88710131.93945  21663907.402    21663904.879    21663905.666
        48.000          35.0004
 113909536.606 8  88760683.82446  21676259.675    21676256.197    21676258.905
        48.000          38.0004
 108004155.347 8  84159093.37047  20552494.778    20552492.902    20552493.274
        50.000          42.0004
 120329521.877 7  93763275.53844  22897942.930    22897940.977    22897941.789
        42.000          25.0004
 115487093.219 8  89989966.26346  21976448.123    21976442.899    21976447.186
        48.000          36.0004
 13  1  1  2 12 30.0000000  0  8G11G20G01G30G31G32G16G23
 129507248.470 6 100914740.62643  24644397.608    24644395.063    24644396.308
        39.000          18.0004
 108250705.492 8  84351199.58047  20599410.416    20599407.063    20599408.853
        48.000          42.0004
 118544686.682 7  92372500.29445  22558292.638    22558293.935    22558291.543
        45.000          33.0004
 115321318.406 8  89860780.14445  21944907.588    21944904.968    21944906.503
        48.000          35.0004
 115521164.986 8  90016498.14846  21982942.007    21982939.113    21982941.428
        48.000          38.0004
 109546625.374 8  85361018.06347  20846017.153    20846015.051    20846015.615
        50.000          42.0004
 121766218.107 7  94882779.11044  23171337.393    23171334.916    23171337.052
        43.000          26.0004
 116965658.696 8  91142095.24345  22257809.654    22257804.769    22257808.731
        48.000          35.0004
 13  1  1  2 13  0.0000000  0  8G11G20G01G30G31G32G16G23
 129546563.174 6 100945375.43843  24651879.023    24651876.214    24651877.777
        39.000          18.0004
 108170702.851 8  84288859.85047  20584186.500    20584183.448    20584185.263
        48.000          43.0004
 118576322.744 7  92397151.75745  22564312.840    22564314.277    22564311.156
        45.000          33.0004
 115223055.446 8  89784211.61846  21926208.371    21926206.679    21926207.190
        48.000          36.0004
 115557625.919 8  90044909.25846  21989879.940    21989876.926    21989879.620
        48.000          37.0004
 109514086.251 8  85335662.89047  20839825.205    20839822.828    20839823.686
        49.000          42.0004
 121627679.804 7  94774827.22144  23144974.682    23144972.244    23144974.053
        43.000          26.0004
 116868896.745 8  91066696.33545  22239396.751    22239391.298    22239395.535
        48.000          35.0004
 13  1  1  2 13 30.0000000  0  8G11G20G01G30G31G32G16G23
 129585835.954 6 100975977.59743  24659352.613    24659350.663    24659350.728
        39.000          19.0004
 108091162.784 8  84226880.57747  20569050.564    20569047.625    20569049.108
        48.000          43.0004
 118608263.903 7  92422040.97245  22570390.755    22570392.162    22570389.292
        44.000          33.0004
 115125289.733 7  89708030.55745  21907604.337    21907602.369    21907602.920
        47.000          35.0004
 115594335.149 8  90073513.85046  21996865.957    21996862.527    21996864.978
        48.000          37.0004
 109481959.266 8  85310628.86647  20833711.733    20833709.446    20833710.205
        50.000          42.0004
 121489334.201 7  94667025.48744  23118647.803    23118644.458    23118645.958
        43.000          25.0004
 116772230.296 8  90991371.85046  22221001.547    22220995.944    22221000.763
        48.000          36.0004
 13  1  1  2 14  0.0000000  0  9G11G20G01G30G31G13G32G16G23
 129625062.876 6 101006544.02843  24666816.437    24666814.818    24666815.367
        37.000          19.0004
 108012085.963 8  84165262.27447  20554002.646    20553999.539    20554000.952
        50.000          42.0004
 118640505.687 7  92447164.41645  22576526.121    22576528.004    22576524.827
        43.000          33.0004
 115028022.351 7  89632237.79445  21889095.261    21889092.757    21889093.589
        47.000          35.0004
 115631288.449 7  90102308.61646  22003897.828    22003894.370    22003897.235
        47.000          37.0004
 127293589.504 6  99189809.0444   24223165.763    24223161.255    24223163.491
        36.000           5.0004
 109450243.580 8  85285915.33547  20827676.390    20827674.109    20827674.687
        49.000          42.0004
 121351183.612 7  94559375.69544  23092359.045    23092356.109    23092357.749
        42.000          25.0004
 116675657.608 8  90916120.42546  22202624.088    22202619.187    22202622.950
        48.000          36.0004
